state,highway,exit_id,title,exit_name,exit_description,exit_location,iexit_detail_link,latitude,longitude,google_maps_link,direction
Louisiana,I-310,32012,Exit 2,EXIT 2,US-61 N; Norco,"St Rose, Louisiana",https://www.iexitapp.com/Louisiana/I-310/Exit%202/32012,29.980012,-90.313464,http://maps.google.com/maps?t=m&q=loc:29.980012+-90.313464,Eastbound
Louisiana,I-310,56308,Exit 2,EXIT 2,US-61 S; Kenner,"St Rose, Louisiana",https://www.iexitapp.com/Louisiana/I-310/Exit%202/56308,29.978007,-90.316699,http://maps.google.com/maps?t=m&q=loc:29.978007+-90.316699,Eastbound
Louisiana,I-310,32013,Exit 6,EXIT 6,LA-48 W,"Destrehan, Louisiana",https://www.iexitapp.com/Louisiana/I-310/Exit%206/32013,29.955304,-90.366664,http://maps.google.com/maps?t=m&q=loc:29.955304+-90.366664,Eastbound
Louisiana,I-310,32014,Exit 7,EXIT 7,LA-18 W; Hahnville,"Luling, Louisiana",https://www.iexitapp.com/Louisiana/I-310/Exit%207/32014,29.935946,-90.377926,http://maps.google.com/maps?t=m&q=loc:29.935946+-90.377926,Eastbound
Louisiana,I-310,32015,Exit 10,EXIT 10,LA-3127 N; Donaldsonville,"Hahnville, Louisiana",https://www.iexitapp.com/Louisiana/I-310/Exit%2010/32015,29.919117,-90.402455,http://maps.google.com/maps?t=m&q=loc:29.919117+-90.402455,Eastbound
Louisiana,I-310,32016,U.S. 90 E,EXIT,U.S. 90 E,"Boutte, Louisiana",https://www.iexitapp.com/Louisiana/I-310/Exit%20/32016,29.897256,-90.40065,http://maps.google.com/maps?t=m&q=loc:29.897256+-90.40065,Eastbound
Louisiana,I-310,56309,U.S. 90 E,EXIT,U.S. 90 E,"Boutte, Louisiana",https://www.iexitapp.com/Louisiana/I-310/Exit%20/56309,29.897256,-90.40065,http://maps.google.com/maps?t=m&q=loc:29.897256+-90.40065,Eastbound
