state,highway,exit_id,title,exit_name,exit_description,exit_location,iexit_detail_link,latitude,longitude,google_maps_link,direction
Maryland,I-295,76737,Exit 1A,EXIT 1A,Pennsylvania Ave SE,"Washington, Maryland",https://www.iexitapp.com/Maryland/I-295/Exit%201A/76737,38.874177,-76.97719,http://maps.google.com/maps?t=m&q=loc:38.874177+-76.97719,Northbound
Maryland,I-295,76757,Benning Road,EXIT,Benning Road,"Washington, Maryland",https://www.iexitapp.com/Maryland/I-295/Exit%20/76757,38.894651,-76.952933,http://maps.google.com/maps?t=m&q=loc:38.894651+-76.952933,Northbound
Maryland,I-295,76758,Burroughs Ave - Minnesota Ave,EXIT,Burroughs Ave - Minnesota Ave,"Washington, Maryland",https://www.iexitapp.com/Maryland/I-295/Exit%20/76758,38.900115,-76.946406,http://maps.google.com/maps?t=m&q=loc:38.900115+-76.946406,Northbound
Maryland,I-295,76759,Polk Street,EXIT,Polk Street,"Washington, Maryland",https://www.iexitapp.com/Maryland/I-295/Exit%20/76759,38.9066,-76.939041,http://maps.google.com/maps?t=m&q=loc:38.9066+-76.939041,Northbound
Maryland,I-295,76760,Quarles St - Eastern Ave,EXIT,Quarles St - Eastern Ave,"Washington, Maryland",https://www.iexitapp.com/Maryland/I-295/Exit%20/76760,38.909943,-76.936047,http://maps.google.com/maps?t=m&q=loc:38.909943+-76.936047,Northbound
Maryland,I-295,76748,US 50 East - Annapolis,EXIT,US 50 East - Annapolis,"Hyattsville, Maryland",https://www.iexitapp.com/Maryland/I-295/Exit%20/76748,38.91643,-76.932346,http://maps.google.com/maps?t=m&q=loc:38.91643+-76.932346,Northbound
Maryland,I-295,76761,US 50 West - New York Ave,EXIT,US 50 West - New York Ave,"Hyattsville, Maryland",https://www.iexitapp.com/Maryland/I-295/Exit%20/76761,38.918918,-76.93215,http://maps.google.com/maps?t=m&q=loc:38.918918+-76.93215,Northbound
Maryland,I-295,76762,Highway 201 North - Kenilworth Ave,EXIT,Highway 201 North - Kenilworth Ave,"Hyattsville, Maryland",https://www.iexitapp.com/Maryland/I-295/Exit%20/76762,38.91921,-76.932147,http://maps.google.com/maps?t=m&q=loc:38.91921+-76.932147,Northbound
Maryland,I-295,76763,"Highway 450 - Bladensburg, Annapolis",EXIT,"Highway 450 - Bladensburg, Annapolis","Bladensburg, Maryland",https://www.iexitapp.com/Maryland/I-295/Exit%20/76763,38.936409,-76.915751,http://maps.google.com/maps?t=m&q=loc:38.936409+-76.915751,Northbound
Maryland,I-295,76764,"Highway 202 - Bladensburg, Cheverly",EXIT,"Highway 202 - Bladensburg, Cheverly","Hyattsville, Maryland",https://www.iexitapp.com/Maryland/I-295/Exit%20/76764,38.932626,-76.921371,http://maps.google.com/maps?t=m&q=loc:38.932626+-76.921371,Northbound
Maryland,I-295,76749,"Highway 410 - Hyattsville, New Carrollton",EXIT,"Highway 410 - Hyattsville, New Carrollton","East Riverdale, Maryland",https://www.iexitapp.com/Maryland/I-295/Exit%20/76749,38.957175,-76.905766,http://maps.google.com/maps?t=m&q=loc:38.957175+-76.905766,Northbound
Maryland,I-295,76751,I-95 South / I-495 South - Richmond,EXIT,I-95 South / I-495 South - Richmond,"Greenbelt, Maryland",https://www.iexitapp.com/Maryland/I-295/Exit%20/76751,38.988401,-76.889062,http://maps.google.com/maps?t=m&q=loc:38.988401+-76.889062,Northbound
Maryland,I-295,76752,I-495 North - I-95 North - Baltimore,EXIT,I-495 North - I-95 North - Baltimore,"Greenbelt, Maryland",https://www.iexitapp.com/Maryland/I-295/Exit%20/76752,38.99183,-76.885626,http://maps.google.com/maps?t=m&q=loc:38.99183+-76.885626,Northbound
Maryland,I-295,76768,Highway 193 - Greenbelt; NASA Goddard,EXIT,Highway 193 - Greenbelt; NASA Goddard,"Greenbelt, Maryland",https://www.iexitapp.com/Maryland/I-295/Exit%20/76768,38.99548,-76.878477,http://maps.google.com/maps?t=m&q=loc:38.99548+-76.878477,Northbound
Maryland,I-295,76767,NASA - Authorized Personnel Only,EXIT,NASA - Authorized Personnel Only,"Greenbelt, Maryland",https://www.iexitapp.com/Maryland/I-295/Exit%20/76767,39.003924,-76.863856,http://maps.google.com/maps?t=m&q=loc:39.003924+-76.863856,Northbound
Maryland,I-295,76769,Powder Mill Road; Beltsville,EXIT,Powder Mill Road; Beltsville,"Laurel, Maryland",https://www.iexitapp.com/Maryland/I-295/Exit%20/76769,39.030496,-76.853327,http://maps.google.com/maps?t=m&q=loc:39.030496+-76.853327,Northbound
Maryland,I-295,76765,Highway 197 - Bowie,EXIT,Highway 197 - Bowie,"Laurel, Maryland",https://www.iexitapp.com/Maryland/I-295/Exit%20/76765,39.050499,-76.841979,http://maps.google.com/maps?t=m&q=loc:39.050499+-76.841979,Northbound
Maryland,I-295,76766,Highway 197 - Laurel,EXIT,Highway 197 - Laurel,"Laurel, Maryland",https://www.iexitapp.com/Maryland/I-295/Exit%20/76766,39.053053,-76.84016,http://maps.google.com/maps?t=m&q=loc:39.053053+-76.84016,Northbound
Maryland,I-295,76739,Highway 198 East - Fort Meade,EXIT,Highway 198 East - Fort Meade,"Laurel, Maryland",https://www.iexitapp.com/Maryland/I-295/Exit%20/76739,39.091998,-76.806292,http://maps.google.com/maps?t=m&q=loc:39.091998+-76.806292,Northbound
Maryland,I-295,76775,Highway 198 West - Laurel,EXIT,Highway 198 West - Laurel,"Laurel, Maryland",https://www.iexitapp.com/Maryland/I-295/Exit%20/76775,39.097004,-76.800804,http://maps.google.com/maps?t=m&q=loc:39.097004+-76.800804,Northbound
Maryland,I-295,76770,Highway 32 East - Fort Meade,EXIT,Highway 32 East - Fort Meade,"Laurel, Maryland",https://www.iexitapp.com/Maryland/I-295/Exit%20/76770,39.109718,-76.784014,http://maps.google.com/maps?t=m&q=loc:39.109718+-76.784014,Northbound
Maryland,I-295,76774,Highway 32 West - Columbia,EXIT,Highway 32 West - Columbia,"Laurel, Maryland",https://www.iexitapp.com/Maryland/I-295/Exit%20/76774,39.114371,-76.777531,http://maps.google.com/maps?t=m&q=loc:39.114371+-76.777531,Northbound
Maryland,I-295,76771,Highway 175 East - Odenton,EXIT,Highway 175 East - Odenton,"Jessup, Maryland",https://www.iexitapp.com/Maryland/I-295/Exit%20/76771,39.135936,-76.757395,http://maps.google.com/maps?t=m&q=loc:39.135936+-76.757395,Northbound
Maryland,I-295,76773,Highway 175 West - Columbia,EXIT,Highway 175 West - Columbia,"Jessup, Maryland",https://www.iexitapp.com/Maryland/I-295/Exit%20/76773,39.140163,-76.755364,http://maps.google.com/maps?t=m&q=loc:39.140163+-76.755364,Northbound
Maryland,I-295,76772,Arundel Mills Blvd,EXIT,Arundel Mills Blvd,"Jessup, Maryland",https://www.iexitapp.com/Maryland/I-295/Exit%20/76772,39.151125,-76.750134,http://maps.google.com/maps?t=m&q=loc:39.151125+-76.750134,Northbound
Maryland,I-295,76740,Highway 100 East - Glen Burnie,EXIT,Highway 100 East - Glen Burnie,"Hanover, Maryland",https://www.iexitapp.com/Maryland/I-295/Exit%20/76740,39.164795,-76.735836,http://maps.google.com/maps?t=m&q=loc:39.164795+-76.735836,Northbound
Maryland,I-295,76753,Highway 100 West - Ellicott City,EXIT,Highway 100 West - Ellicott City,"Hanover, Maryland",https://www.iexitapp.com/Maryland/I-295/Exit%20/76753,39.170626,-76.730334,http://maps.google.com/maps?t=m&q=loc:39.170626+-76.730334,Northbound
Maryland,I-295,76750,I-195 East - BWI Airport,EXIT,I-195 East - BWI Airport,"Hanover, Maryland",https://www.iexitapp.com/Maryland/I-295/Exit%20/76750,39.198062,-76.701575,http://maps.google.com/maps?t=m&q=loc:39.198062+-76.701575,Northbound
Maryland,I-295,76756,I-195 West - To I-95 - Catonsville,EXIT,I-195 West - To I-95 - Catonsville,"Linthicum Heights, Maryland",https://www.iexitapp.com/Maryland/I-295/Exit%20/76756,39.200875,-76.694335,http://maps.google.com/maps?t=m&q=loc:39.200875+-76.694335,Northbound
Maryland,I-295,76754,W. Nursery Road,EXIT,W. Nursery Road,"Linthicum Heights, Maryland",https://www.iexitapp.com/Maryland/I-295/Exit%20/76754,39.209302,-76.683812,http://maps.google.com/maps?t=m&q=loc:39.209302+-76.683812,Northbound
Maryland,I-295,76742,I-695 East,EXIT,I-695 East,"Linthicum Heights, Maryland",https://www.iexitapp.com/Maryland/I-295/Exit%20/76742,39.217587,-76.663257,http://maps.google.com/maps?t=m&q=loc:39.217587+-76.663257,Northbound
Maryland,I-295,76755,I-695 North,EXIT,I-695 North,"Linthicum Heights, Maryland",https://www.iexitapp.com/Maryland/I-295/Exit%20/76755,39.219438,-76.657867,http://maps.google.com/maps?t=m&q=loc:39.219438+-76.657867,Northbound
Maryland,I-295,76743,I-895 East,EXIT,I-895 East,"Lansdowne, Maryland",https://www.iexitapp.com/Maryland/I-295/Exit%20/76743,39.230214,-76.649951,http://maps.google.com/maps?t=m&q=loc:39.230214+-76.649951,Northbound
Maryland,I-295,76744,Waterview Ave,EXIT,Waterview Ave,"Baltimore, Maryland",https://www.iexitapp.com/Maryland/I-295/Exit%20/76744,39.257191,-76.636066,http://maps.google.com/maps?t=m&q=loc:39.257191+-76.636066,Northbound
Maryland,I-295,76745,Westport,EXIT,Westport,"Baltimore, Maryland",https://www.iexitapp.com/Maryland/I-295/Exit%20/76745,39.2627,-76.635322,http://maps.google.com/maps?t=m&q=loc:39.2627+-76.635322,Northbound
Maryland,I-295,76746,I-95 North,EXIT,I-95 North,"Baltimore, Maryland",https://www.iexitapp.com/Maryland/I-295/Exit%20/76746,39.267412,-76.634964,http://maps.google.com/maps?t=m&q=loc:39.267412+-76.634964,Northbound
Maryland,I-295,76747,US 1 North - Monroe Street,EXIT,US 1 North - Monroe Street,"Baltimore, Maryland",https://www.iexitapp.com/Maryland/I-295/Exit%20/76747,39.269626,-76.633142,http://maps.google.com/maps?t=m&q=loc:39.269626+-76.633142,Northbound
Maryland,I-295,76738,Downtown Baltimore,EXIT,Downtown Baltimore,"Baltimore, Maryland",https://www.iexitapp.com/Maryland/I-295/Exit%20/76738,39.267889,-76.634739,http://maps.google.com/maps?t=m&q=loc:39.267889+-76.634739,Northbound
