state,highway,exit_id,title,exit_name,exit_description,exit_location,iexit_detail_link,latitude,longitude,google_maps_link,direction
Illinois,I-190,36854,I-90 east (Kennedy Expressway) – Chicago Loop,EXIT,I-90 east (Kennedy Expressway) – Chicago Loop,"Des Plaines, Illinois",https://www.iexitapp.com/Illinois/I-190/Exit%20/36854,41.983729,-87.84661,http://maps.google.com/maps?t=m&q=loc:41.983729+-87.84661,Westbound
Illinois,I-190,36849,Exit 1,EXIT 1,River Road (9400 West),"Des Plaines, Illinois",https://www.iexitapp.com/Illinois/I-190/Exit%201/36849,41.983861,-87.861569,http://maps.google.com/maps?t=m&q=loc:41.983861+-87.861569,Westbound
Illinois,I-190,36851,Exit 2A,EXIT 2A,US 12 / US 45 (Mannheim Road) (10400 West),"Des Plaines, Illinois",https://www.iexitapp.com/Illinois/I-190/Exit%202A/36851,41.98229,-87.875978,http://maps.google.com/maps?t=m&q=loc:41.98229+-87.875978,Westbound
Illinois,I-190,36852,Exit 2B,EXIT 2B,US 12 / US 45 (Mannheim Road) (10400 West),"Chicago, Illinois",https://www.iexitapp.com/Illinois/I-190/Exit%202B/36852,41.980892,-87.879415,http://maps.google.com/maps?t=m&q=loc:41.980892+-87.879415,Westbound
Illinois,I-190,36853,Bessie Coleman Drive – International Terminal,EXIT,Bessie Coleman Drive – International Terminal,"Chicago, Illinois",https://www.iexitapp.com/Illinois/I-190/Exit%20/36853,41.979263,-87.883273,http://maps.google.com/maps?t=m&q=loc:41.979263+-87.883273,Westbound
