state,highway,exit_id,title,exit_name,exit_description,exit_location,iexit_detail_link,latitude,longitude,google_maps_link,direction
New Hampshire,Spaulding Turnpike,41149,Exit 1,EXIT 1,Gosling Road – Pease International Tradeport,"Portsmouth, New Hampshire",https://www.iexitapp.com/New%20Hampshire/Spaulding%20Turnpike/Exit%201/41149,43.087333,-70.798103,http://maps.google.com/maps?t=m&q=loc:43.087333+-70.798103,Northbound
New Hampshire,Spaulding Turnpike,41150,Exit 2,EXIT 2,Fox Run Road,"Portsmouth, New Hampshire",https://www.iexitapp.com/New%20Hampshire/Spaulding%20Turnpike/Exit%202/41150,43.098702,-70.809676,http://maps.google.com/maps?t=m&q=loc:43.098702+-70.809676,Northbound
New Hampshire,Spaulding Turnpike,41151,Exit 4,EXIT 4,Newington Village,"Portsmouth, New Hampshire",https://www.iexitapp.com/New%20Hampshire/Spaulding%20Turnpike/Exit%204/41151,43.111875,-70.817372,http://maps.google.com/maps?t=m&q=loc:43.111875+-70.817372,Northbound
New Hampshire,Spaulding Turnpike,41152,Hilton Park,EXIT,Hilton Park,"Dover, New Hampshire",https://www.iexitapp.com/New%20Hampshire/Spaulding%20Turnpike/Exit%20/41152,43.12279,-70.8306,http://maps.google.com/maps?t=m&q=loc:43.12279+-70.8306,Northbound
New Hampshire,Spaulding Turnpike,41153,Dover,EXIT,Dover,"Dover, New Hampshire",https://www.iexitapp.com/New%20Hampshire/Spaulding%20Turnpike/Exit%20/41153,43.127851,-70.837452,http://maps.google.com/maps?t=m&q=loc:43.127851+-70.837452,Northbound
New Hampshire,Spaulding Turnpike,41154,"US 4 – Durham, Concord",EXIT,"US 4 – Durham, Concord","Dover, New Hampshire",https://www.iexitapp.com/New%20Hampshire/Spaulding%20Turnpike/Exit%20/41154,43.130483,-70.838592,http://maps.google.com/maps?t=m&q=loc:43.130483+-70.838592,Northbound
New Hampshire,Spaulding Turnpike,41155,"NH 108 – Dover, Durham",EXIT,"NH 108 – Dover, Durham","Dover, New Hampshire",https://www.iexitapp.com/New%20Hampshire/Spaulding%20Turnpike/Exit%20/41155,43.179272,-70.872938,http://maps.google.com/maps?t=m&q=loc:43.179272+-70.872938,Northbound
New Hampshire,Spaulding Turnpike,41156,NH 9 east – Downtown Dover,EXIT,NH 9 east – Downtown Dover,"Dover, New Hampshire",https://www.iexitapp.com/New%20Hampshire/Spaulding%20Turnpike/Exit%20/41156,43.18249,-70.880519,http://maps.google.com/maps?t=m&q=loc:43.18249+-70.880519,Northbound
New Hampshire,Spaulding Turnpike,41157,NH 9 to NH 155 west – Madbury,EXIT,NH 9 to NH 155 west – Madbury,"Dover, New Hampshire",https://www.iexitapp.com/New%20Hampshire/Spaulding%20Turnpike/Exit%20/41157,43.18533,-70.887025,http://maps.google.com/maps?t=m&q=loc:43.18533+-70.887025,Northbound
New Hampshire,Spaulding Turnpike,41158,"To NH 9 / NH 108 – Dover, Somersworth",EXIT,"To NH 9 / NH 108 – Dover, Somersworth","Dover, New Hampshire",https://www.iexitapp.com/New%20Hampshire/Spaulding%20Turnpike/Exit%20/41158,43.216712,-70.892528,http://maps.google.com/maps?t=m&q=loc:43.216712+-70.892528,Northbound
New Hampshire,Spaulding Turnpike,41159,Toll,TOLL BOOTH,Toll,"Rochester, New Hampshire",https://www.iexitapp.com/New%20Hampshire/Spaulding%20Turnpike/Toll/41159,43.273111,-70.962445,http://maps.google.com/maps?t=m&q=loc:43.273111+-70.962445,Northbound
New Hampshire,Spaulding Turnpike,41160,Old Dover Road – Rochester,EXIT,Old Dover Road – Rochester,"Rochester, New Hampshire",https://www.iexitapp.com/New%20Hampshire/Spaulding%20Turnpike/Exit%20/41160,43.278452,-70.969359,http://maps.google.com/maps?t=m&q=loc:43.278452+-70.969359,Northbound
New Hampshire,Spaulding Turnpike,41161,"NH 125 – Rochester, Gonic",EXIT,"NH 125 – Rochester, Gonic","Rochester, New Hampshire",https://www.iexitapp.com/New%20Hampshire/Spaulding%20Turnpike/Exit%20/41161,43.279358,-70.971113,http://maps.google.com/maps?t=m&q=loc:43.279358+-70.971113,Northbound
New Hampshire,Spaulding Turnpike,41162,"US 202 – Rochester, Concord",EXIT,"US 202 – Rochester, Concord","Rochester, New Hampshire",https://www.iexitapp.com/New%20Hampshire/Spaulding%20Turnpike/Exit%20/41162,43.292446,-70.991166,http://maps.google.com/maps?t=m&q=loc:43.292446+-70.991166,Northbound
New Hampshire,Spaulding Turnpike,41163,Ten Rod Road – Rochester,EXIT,Ten Rod Road – Rochester,"Rochester, New Hampshire",https://www.iexitapp.com/New%20Hampshire/Spaulding%20Turnpike/Exit%20/41163,43.309629,-70.995718,http://maps.google.com/maps?t=m&q=loc:43.309629+-70.995718,Northbound
New Hampshire,Spaulding Turnpike,41164,"NH 11 west – Farmington, Alton",EXIT,"NH 11 west – Farmington, Alton","Rochester, New Hampshire",https://www.iexitapp.com/New%20Hampshire/Spaulding%20Turnpike/Exit%20/41164,43.313483,-70.996416,http://maps.google.com/maps?t=m&q=loc:43.313483+-70.996416,Northbound
New Hampshire,Spaulding Turnpike,41165,"US 202 east / NH 11 east to NH 125 – East Rochester, Sanford",EXIT,"US 202 east / NH 11 east to NH 125 – East Rochester, Sanford","Rochester, New Hampshire",https://www.iexitapp.com/New%20Hampshire/Spaulding%20Turnpike/Exit%20/41165,43.324266,-70.989224,http://maps.google.com/maps?t=m&q=loc:43.324266+-70.989224,Northbound
New Hampshire,Spaulding Turnpike,41166,"US 202 east / NH 11 east to NH 125 – East Rochester, Sanford",EXIT,"US 202 east / NH 11 east to NH 125 – East Rochester, Sanford","Rochester, New Hampshire",https://www.iexitapp.com/New%20Hampshire/Spaulding%20Turnpike/Exit%20/41166,43.333385,-70.983526,http://maps.google.com/maps?t=m&q=loc:43.333385+-70.983526,Southbound
New Hampshire,Spaulding Turnpike,41167,"NH 11 west – Farmington, Alton",EXIT,"NH 11 west – Farmington, Alton","Rochester, New Hampshire",https://www.iexitapp.com/New%20Hampshire/Spaulding%20Turnpike/Exit%20/41167,43.322993,-70.991026,http://maps.google.com/maps?t=m&q=loc:43.322993+-70.991026,Southbound
New Hampshire,Spaulding Turnpike,41168,"US 202 – Rochester, Concord",EXIT,"US 202 – Rochester, Concord","Rochester, New Hampshire",https://www.iexitapp.com/New%20Hampshire/Spaulding%20Turnpike/Exit%20/41168,43.298301,-70.994517,http://maps.google.com/maps?t=m&q=loc:43.298301+-70.994517,Southbound
New Hampshire,Spaulding Turnpike,41169,"NH 125 – Rochester, Gonic",EXIT,"NH 125 – Rochester, Gonic","Rochester, New Hampshire",https://www.iexitapp.com/New%20Hampshire/Spaulding%20Turnpike/Exit%20/41169,43.285441,-70.984745,http://maps.google.com/maps?t=m&q=loc:43.285441+-70.984745,Southbound
New Hampshire,Spaulding Turnpike,41170,"To NH 9 / NH 108 – Dover, Somersworth",EXIT,"To NH 9 / NH 108 – Dover, Somersworth","Dover, New Hampshire",https://www.iexitapp.com/New%20Hampshire/Spaulding%20Turnpike/Exit%20/41170,43.217886,-70.893836,http://maps.google.com/maps?t=m&q=loc:43.217886+-70.893836,Southbound
New Hampshire,Spaulding Turnpike,41171,"NH 9 to NH 155 – Downtown Dover, Madbury",EXIT,"NH 9 to NH 155 – Downtown Dover, Madbury","Dover, New Hampshire",https://www.iexitapp.com/New%20Hampshire/Spaulding%20Turnpike/Exit%20/41171,43.187451,-70.889114,http://maps.google.com/maps?t=m&q=loc:43.187451+-70.889114,Southbound
New Hampshire,Spaulding Turnpike,41172,"NH 9 to NH 155 – Downtown Dover, Madbury",EXIT,"NH 9 to NH 155 – Downtown Dover, Madbury","Dover, New Hampshire",https://www.iexitapp.com/New%20Hampshire/Spaulding%20Turnpike/Exit%20/41172,43.185048,-70.886986,http://maps.google.com/maps?t=m&q=loc:43.185048+-70.886986,Southbound
New Hampshire,Spaulding Turnpike,41173,"NH 9 to NH 155 – Downtown Dover, Madbury",EXIT,"NH 9 to NH 155 – Downtown Dover, Madbury","Dover, New Hampshire",https://www.iexitapp.com/New%20Hampshire/Spaulding%20Turnpike/Exit%20/41173,43.182886,-70.882547,http://maps.google.com/maps?t=m&q=loc:43.182886+-70.882547,Southbound
New Hampshire,Spaulding Turnpike,41174,Toll,TOLL BOOTH,Toll,"Dover, New Hampshire",https://www.iexitapp.com/New%20Hampshire/Spaulding%20Turnpike/Toll/41174,43.137084,-70.841684,http://maps.google.com/maps?t=m&q=loc:43.137084+-70.841684,Southbound
New Hampshire,Spaulding Turnpike,41175,Exit 6,EXIT 6,"US 4 – Durham, Concord","Dover, New Hampshire",https://www.iexitapp.com/New%20Hampshire/Spaulding%20Turnpike/Exit%206/41175,43.135178,-70.840963,http://maps.google.com/maps?t=m&q=loc:43.135178+-70.840963,Southbound
New Hampshire,Spaulding Turnpike,41176,Exit 4,EXIT 4,Newington Village,"Portsmouth, New Hampshire",https://www.iexitapp.com/New%20Hampshire/Spaulding%20Turnpike/Exit%204/41176,43.11467,-70.8217,http://maps.google.com/maps?t=m&q=loc:43.11467+-70.8217,Southbound
New Hampshire,Spaulding Turnpike,41177,Exit 3,EXIT 3,Woodbury AvenueS,"Portsmouth, New Hampshire",https://www.iexitapp.com/New%20Hampshire/Spaulding%20Turnpike/Exit%203/41177,43.107235,-70.815142,http://maps.google.com/maps?t=m&q=loc:43.107235+-70.815142,Southbound
New Hampshire,Spaulding Turnpike,41178,Exit 1,EXIT 1,Gosling Road – Pease International Tradeport,"Portsmouth, New Hampshire",https://www.iexitapp.com/New%20Hampshire/Spaulding%20Turnpike/Exit%201/41178,43.09494,-70.807547,http://maps.google.com/maps?t=m&q=loc:43.09494+-70.807547,Southbound
