state,highway,exit_id,title,exit_name,exit_description,exit_location,iexit_detail_link,latitude,longitude,google_maps_link,direction
North Carolina,I-795,40798,Exit 22,EXIT 22,NC 44 (Goldsboro Bypass),"Goldsboro, North Carolina",https://www.iexitapp.com/North%20Carolina/I-795/Exit%2022/40798,35.420786,-77.997203,http://maps.google.com/maps?t=m&q=loc:35.420786+-77.997203,Northbound
North Carolina,I-795,40799,Exit 18,EXIT 18,Main Street – Pikeville,"Pikeville, North Carolina",https://www.iexitapp.com/North%20Carolina/I-795/Exit%2018/40799,35.49188,-77.994571,http://maps.google.com/maps?t=m&q=loc:35.49188+-77.994571,Northbound
North Carolina,I-795,40800,Exit 14,EXIT 14,"NC 222 – Fremont, Kenly","Fremont, North Carolina",https://www.iexitapp.com/North%20Carolina/I-795/Exit%2014/40800,35.545645,-77.988842,http://maps.google.com/maps?t=m&q=loc:35.545645+-77.988842,Northbound
North Carolina,I-795,40801,Exit 9,EXIT 9,Alton Road – Black Creek,"Lucama, North Carolina",https://www.iexitapp.com/North%20Carolina/I-795/Exit%209/40801,35.6153,-77.979295,http://maps.google.com/maps?t=m&q=loc:35.6153+-77.979295,Northbound
North Carolina,I-795,40802,Exit 5,EXIT 5,"US 301 to US 264 east – Wilson, Kenly, Smithfield","Wilson, North Carolina",https://www.iexitapp.com/North%20Carolina/I-795/Exit%205/40802,35.664261,-77.955595,http://maps.google.com/maps?t=m&q=loc:35.664261+-77.955595,Northbound
North Carolina,I-795,40804,Exit 42,EXIT 42,Downing Street Wilson,"Wilson, North Carolina",https://www.iexitapp.com/North%20Carolina/I-795/Exit%2042/40804,35.69271,-77.971314,http://maps.google.com/maps?t=m&q=loc:35.69271+-77.971314,Northbound
North Carolina,I-795,40805,Exit 40,EXIT 40,NC 42 – Wilson Clayton,"Wilson, North Carolina",https://www.iexitapp.com/North%20Carolina/I-795/Exit%2040/40805,35.710878,-77.999711,http://maps.google.com/maps?t=m&q=loc:35.710878+-77.999711,Northbound
