state_id,state,name,href,full_url,stop_type,Chain,Latitude,Longitude,Highway,Exit,Street Address,City,State,Postal Code,Phone,Phone 2,Fax,Diesel,Bulk Def,# of Parking Spots,# of Reserved Parking Spots,# of Paid Parking Spots,# of Fuel Lanes,# of Showers,# of Truck Service Bays,Unleaded,Mile Marker,# of Men's Showers,Phone 3,Phone 4,Mailing Address,Hours of Operation,Propane,Phone 5,Road Name,https
36,Oklahoma,FLYING J TRAVEL CENTER #703,location_details.php?id=17900,https://www.truckstopsandservices.com/location_details.php?id=17900,Trucker,flying-j-,35.458074,-97.689426,I-40,140,701 S MORGAN RD,OKLAHOMA CITY,OK,73128,405-324-5000 (TRAVEL CENTER),405-324-5000 (HUDDLE HOUSE),405-324-7181,3.299,4.359,172,5,5,12,15,0,,,,,,,,,,,
36,Oklahoma,FLYING J TRAVEL CENTER #704,location_details.php?id=17903,https://www.truckstopsandservices.com/location_details.php?id=17903,Trucker,flying-j-,35.596155,-97.435976,I-35,137,4801 NE 122ND ST,EDMOND,OK,73013,405-475-9440 (TRAVEL CENTER),405-475-9440 (HUDDLE HOUSE),405-475-9435,3.259,4.259,73,10,10,8,10,0,2.459,,,,,,,,,,
36,Oklahoma,FLYING J TRAVEL CENTER #705,location_details.php?id=17906,https://www.truckstopsandservices.com/location_details.php?id=17906,Trucker,flying-j-,35.266403,-99.64181,I-40,20,2400 S 4TH ROUTE,SAYRE,OK,73662,580-928-2216 (TRAVEL CENTER),580-928-2216 (DENNY'S),580-928-2354,3.399,4.259,96,5,5,7,9,0,2.659,,,,,,,,,,
36,Oklahoma,FLYING J TRAVEL CENTER #706,location_details.php?id=17911,https://www.truckstopsandservices.com/location_details.php?id=17911,Trucker,flying-j-,36.162796,-95.833116,I-44,236,121 N 129TH E,TULSA,OK,74116,918-437-5477 (TRAVEL CENTER),918-437-5477 (DENNY'S),918-437-5660,3.399,4.259,179,20,20,8,9,0,,,,,,,,,,,
36,Oklahoma,FOOD MART,location_details.php?id=851,https://www.truckstopsandservices.com/location_details.php?id=851,Trucker,66gas,35.348424,-96.951835,I-40,181,2110 W INDEPENDENCE ST,SHAWNEE,OK,74804,405-417-1308 (TRAVEL CENTER),405-417-1308 (HUNT BROTHERS PIZZA),,,,0,0,0,2,0,0,,,,,,,,,,,
36,Oklahoma,FUEL SMART,location_details.php?id=11605,https://www.truckstopsandservices.com/location_details.php?id=11605,Trucker,sinclair_oil_.svg,35.740705,-95.307501,MTP,,4300 CHANDLER RD,MUSKOGEE,OK,74403,918-687-7451 (TRAVEL CENTER),918-687-7451 (HUNT BROTHERS PIZZA),,,,30,0,30,4,2,0,,MM 36,,,,,,,,,
36,Oklahoma,GAS AND GO,location_details.php?id=53892,https://www.truckstopsandservices.com/location_details.php?id=53892,Trucker,66gas,35.98793,-96.188332,OK 66,,17456 HWY 66 W,SAPULPA,OK,74066,918-224-3233 (TRAVEL CENTER),,,,,2,0,0,2,0,0,,,,,,,,,,,
36,Oklahoma,GASQUATCH,location_details.php?id=58010,https://www.truckstopsandservices.com/location_details.php?id=58010,Trucker,ind_dealer_1,33.923929,-94.768564,US 259,,3600 NE LINCOLN RD.,IDABEL,OK,74745,580-407-8796 (TRAVEL CENTER),,,,,5,,,2,,,,,,,,,,,,,
36,Oklahoma,General Stores,location_details.php?id=64665,https://www.truckstopsandservices.com/location_details.php?id=64665,Trucker,,36.39583,-97.81955,,,106 South 42nd Street,Enid,OK,73701,580-701-6268,,,,,,,,,,,,,,,,,,,,,
36,Oklahoma,GORE'S TRAVEL PLAZA,location_details.php?id=54366,https://www.truckstopsandservices.com/location_details.php?id=54366,Trucker,66gas,36.167031,-98.953072,US 183,OK 3,1093 US 270 NW,SEILING,OK,73663,580-922-6166 (TRAVEL CENTER),580-922-6166 (SONIC),580-922-6167,,,105,0,0,8,2,0,,,,,,,,,,,
36,Oklahoma,GRAND TRAVEL PLAZA,location_details.php?id=46830,https://www.truckstopsandservices.com/location_details.php?id=46830,Trucker,ind_dealer_1,35.380439,-97.054848,I-40,178,765 GRAND CASINO BLVD,SHAWNEE,OK,74804,405-964-7652 (TRAVEL CENTER),405-964-7652 (GRAND TRAVEL GRILL),405-964-7349,,,73,0,73,7,6,0,,,,,,,,,,,
36,Oklahoma,GUTHRIE TRAVEL CENTER,location_details.php?id=46812,https://www.truckstopsandservices.com/location_details.php?id=46812,Trucker,valero,35.877911,-97.39246,I-35,157,2621 E HWY 33,GUTHRIE,OK,73044,405-260-1596 (TRAVEL CENTER),405-260-1596 (GOLDEN CHICK),405-260-3716,,,69,0,0,4,4,0,,,,,,,,,,,
36,Oklahoma,H & Z MART,location_details.php?id=11657,https://www.truckstopsandservices.com/location_details.php?id=11657,Trucker,66gas,35.959061,-96.012732,US 75,,400 W 141ST ST,GLENPOOL,OK,74033,918-322-9265 (TRAVEL CENTER),918-322-9265 (CHURCH'S CHICKEN),918-322-9265,,,60,0,60,6,0,0,,,,,,,,,,,
36,Oklahoma,HUTCH'S,location_details.php?id=46805,https://www.truckstopsandservices.com/location_details.php?id=46805,Trucker,66gas,35.392192,-99.404309,I-40,38,2000 S MAIN ST,ELK CITY,OK,73644,580-225-3301 (TRAVEL CENTER),,,,,17,0,0,3,0,0,,,,,,,,,,,
36,Oklahoma,HUTCH'S #103,location_details.php?id=18764,https://www.truckstopsandservices.com/location_details.php?id=18764,Trucker,66gas,35.408382,-99.471125,I-40,34,5100 W 3RD ST,ELK CITY,OK,73644,580-225-8649 (TRAVEL CENTER),580-225-8649 (HUTCH'S DELI),580-225-4516,,,15,0,0,5,0,0,,,,,,,,,,,
36,Oklahoma,HUTCH'S #113,location_details.php?id=11665,https://www.truckstopsandservices.com/location_details.php?id=11665,Trucker,ind_dealer_1,36.433759,-99.426793,US 183,,3710 OKLAHOMA AVE,WOODWARD,OK,73801,580-256-0051 (TRAVEL CENTER),580-256-0051 (HUTCH'S DELI),580-256-0053,,,50,0,0,4,3,0,,,,,,,,,,,
36,Oklahoma,HUTCH'S #114,location_details.php?id=11659,https://www.truckstopsandservices.com/location_details.php?id=11659,Trucker,66gas,36.361205,-97.89021,US 81,,3206 S VAN BUREN ST,ENID,OK,73703,580-242-0747 (TRAVEL CENTER),580-242-0747 (HUTCH'S DELI),,,,37,0,0,4,2,0,,,,,,,,,,,
36,Oklahoma,HUTCH'S #118,location_details.php?id=18775,https://www.truckstopsandservices.com/location_details.php?id=18775,Trucker,66gas,35.842113,-98.419462,US 270,,320 S CLARENCE NASH BLVD,WATONGA,OK,73772,580-623-2444 (TRAVEL CENTER),,,,,17,0,0,4,2,0,,,,,,,,,,,
36,Oklahoma,HUTCH'S #119,location_details.php?id=54423,https://www.truckstopsandservices.com/location_details.php?id=54423,Trucker,66gas,35.407564,-99.380249,I-40,40,2001 E 7TH ST,ELK CITY,OK,73644,580-303-4515 (TRAVEL CENTER),,,,,10,0,0,4,0,0,,,,,,,,,,,
36,Oklahoma,HUTCH'S #120,location_details.php?id=53601,https://www.truckstopsandservices.com/location_details.php?id=53601,Trucker,ind_dealer_1,35.30924,-99.632589,I-40,25,610 N E HWY 66,SAYRE,OK,73662,580-928-3847 (TRAVEL CENTER),,,,,10,0,0,4,0,,,,,,,,,,,,
36,Oklahoma,HUTCH'S #125 - ALTUS,location_details.php?id=55837,https://www.truckstopsandservices.com/location_details.php?id=55837,Trucker,ind_dealer_1,34.667009,-99.316059,US 62,,1301 E TAMARACK RD,ALTUS,OK,73521,580-379-0107 (TRAVEL CENTER),580-379-0107 (HUTCH'S DELI),,,,10,0,0,3,0,0,,,,,,,,,,,
36,Oklahoma,JIFFY TRIP,location_details.php?id=46809,https://www.truckstopsandservices.com/location_details.php?id=46809,Trucker,conoco,36.261374,-98.479776,US 60,OK 58,801 S MAIN ST,FAIRVIEW,OK,73737,580-227-3752 (TRAVEL CENTER),,,,,4,0,0,4,0,0,,,,,,,,,,,
36,Oklahoma,JIFFY TRIP,location_details.php?id=46818,https://www.truckstopsandservices.com/location_details.php?id=46818,Trucker,ind_dealer_1,36.810696,-97.73277,US 81,OK 11,210 OK 11,MEDFORD,OK,73759,580-395-3181 (TRAVEL CENTER),,,,,10,0,0,4,0,0,,,,,,,,,,,
36,Oklahoma,JIFFY TRIP,location_details.php?id=55174,https://www.truckstopsandservices.com/location_details.php?id=55174,Trucker,ind_dealer_1,36.3906,-98.087547,US 412,,231 LAHOMA RD,LAHOMA,OK,73754,580-210-5963 (TRAVEL CENTER),,,,,7,0,0,4,0,0,,,,,,,,,,,
36,Oklahoma,JIFFY TRIP,location_details.php?id=11608,https://www.truckstopsandservices.com/location_details.php?id=11608,Trucker,ind_dealer_1,36.433279,-99.443319,OK 15,,1304 48TH ST,WOODWARD,OK,73801,580-256-2130 (TRAVEL CENTER),,,,,0,0,0,2,0,0,,,,,,,,,,,
36,Oklahoma,JIFFY TRIP TRUCK STOP,location_details.php?id=1465,https://www.truckstopsandservices.com/location_details.php?id=1465,Trucker,conoco,36.811526,-97.336906,I-35,222,4416 W DOOLIN AVE,BLACKWELL,OK,74631,580-363-0402 (TRAVEL CENTER),,,,,6,0,0,4,2,0,,,1,,,,,,,,
36,Oklahoma,JIM RAY'S QUICK STOP,location_details.php?id=1467,https://www.truckstopsandservices.com/location_details.php?id=1467,Trucker,valero,34.231684,-95.634521,INTP,16,904 W MAIN ST,ANTLERS,OK,74523,580-298-5521 (TRAVEL CENTER),,,,,0,0,0,2,0,0,,,,,,,,,,,
36,Oklahoma,JOHNNY'S QUICK STOP,location_details.php?id=11612,https://www.truckstopsandservices.com/location_details.php?id=11612,Trucker,66gas,36.231502,-95.759192,OK 167,,5250 OK 167,CATOOSA,OK,74015,918-266-7088 (TRAVEL CENTER),,918-266-2688,,,6,0,0,3,0,0,,,,,,,,,,,
36,Oklahoma,JW'S TRAVEL STOP,location_details.php?id=18776,https://www.truckstopsandservices.com/location_details.php?id=18776,Trucker,ind_dealer_1,34.159388,-97.982469,US 81,US 70,101 N US 81,WAURIKA,OK,73573,580-228-3800 (TRAVEL CENTER),580-228-3800 (JW'S RESTAURANT),,,,10,0,0,4,1,0,,,,,,,,,,,
36,Oklahoma,KANZA TRAVEL PLAZA,location_details.php?id=1589,https://www.truckstopsandservices.com/location_details.php?id=1589,Trucker,conoco,36.940413,-97.34349,I-35,231,9695 N HWY 177,BRAMAN,OK,74632,580-385-2137 (TRAVEL CENTER),580-385-2137 (KANZA DELI),580-385-2159,,,60,0,0,7,4,0,,,,,,,,,,,
36,Oklahoma,KENT'S TRAVEL CENTER,location_details.php?id=18777,https://www.truckstopsandservices.com/location_details.php?id=18777,Trucker,66gas,34.651561,-97.215261,I-35,66,35858 HWY 29,WYNNEWOOD,OK,73075,405-665-3501 (TRAVEL CENTER),,405-665-2222,,,30,0,0,3,0,0,,,,,,,,,,,
36,Oklahoma,KUM & GO,location_details.php?id=11677,https://www.truckstopsandservices.com/location_details.php?id=11677,Trucker,kumngo-,36.224803,-96.795939,US 412,36,CIMARRON TPKE EXIT 36,PAWNEE,OK,74058,918-454-2808 (TRAVEL CENTER),918-454-2808 (MCDONALD'S),,,,18,0,0,8,0,0,,,,,,,,,,,
36,Oklahoma,KUM & GO,location_details.php?id=43960,https://www.truckstopsandservices.com/location_details.php?id=43960,Trucker,kumngo-,36.009053,-96.110878,I-44,215,801 N 9TH ST,SAPULPA,OK,74066,918-227-7874 (TRAVEL CENTER),,,,,2,0,0,2,0,0,,,,,,,,,,,
36,Oklahoma,KWICK STOP,location_details.php?id=46817,https://www.truckstopsandservices.com/location_details.php?id=46817,Trucker,sinclair_oil_.svg,35.381357,-97.089594,I-40,176,12606 S MCLOUD RD,MCLOUD,OK,74851,405-386-6286 (TRAVEL CENTER),,,,,20,0,0,3,0,0,,,,,,,,,,,
36,Oklahoma,KWIK CHEK,location_details.php?id=11649,https://www.truckstopsandservices.com/location_details.php?id=11649,Trucker,66gas,33.99699,-95.469877,US 70,,3812 US 70,HUGO,OK,74743,580-326-6755 (TRAVEL CENTER),,,,,6,0,0,2,0,0,,,,,,,,,,,
36,Oklahoma,KWIK MART,location_details.php?id=54519,https://www.truckstopsandservices.com/location_details.php?id=54519,Trucker,66gas,34.59545,-97.967961,OK 7,,10887 OK-7,MARLOW,OK,73055,580-658-3200 (TRAVEL CENTER),580-658-3200 (THE Y CAFE),,,,10,0,0,2,4,0,,,2,,,,,,,,
36,Oklahoma,KWIK N EZ AUTO / TRUCK TRAVEL PLAZA,location_details.php?id=1649,https://www.truckstopsandservices.com/location_details.php?id=1649,Trucker,66gas,35.46099,-95.527043,I-40,265,1201 S BUSINESS 69,CHECOTAH,OK,74426,918-473-7200 (TRAVEL CENTER),,,,,10,0,0,4,0,0,,,,,,,,,,,
36,Oklahoma,LAVERNE FARMERS CO-OP,location_details.php?id=54630,https://www.truckstopsandservices.com/location_details.php?id=54630,Trucker,ind_dealer_1,36.72367,-99.890793,US 283,,1995 US 283,LAVERNE,OK,73848,580-921-3327 (TRAVEL CENTER),,,,,0,0,0,2,0,0,,,,,,,,,,,
36,Oklahoma,LOVE'S TRAVEL STOP #201,location_details.php?id=15125,https://www.truckstopsandservices.com/location_details.php?id=15125,Trucker,loves-travel-stops-country-stores_416x416,35.423193,-99.372658,I-40,41,2703 E HWY 66,ELK CITY,OK,73644,580-225-9162 (TRAVEL CENTER),580-225-9162 (SUBWAY),580-225-9160,,,10,0,0,4,0,0,,,,,,,,,,,
36,Oklahoma,LOVE'S TRAVEL STOP #203,location_details.php?id=1759,https://www.truckstopsandservices.com/location_details.php?id=1759,Trucker,loves-travel-stops-country-stores_416x416,35.457136,-97.688121,I-40,140,800 S MORGAN RD,OKLAHOMA CITY,OK,73128,405-789-0087 (TRAVEL CENTER),405-789-0087 (SUBWAY),405-789-6253,,,20,0,0,7,3,0,,,,,,,,,,,
36,Oklahoma,LOVE'S TRAVEL STOP #204,location_details.php?id=11630,https://www.truckstopsandservices.com/location_details.php?id=11630,Trucker,loves-travel-stops-country-stores_416x416,35.305141,-95.588347,US 69,BIRKES RD,1601 BIRKES RD,EUFAULA,OK,74432,918-689-9444 (TRAVEL CENTER),918-689-9444 (SUBWAY),918-689-9462,,,70,0,0,7,5,3,,,,918-689-9444 (GODFATHER'S PIZZA),,,,,,,
36,Oklahoma,LOVE'S TRAVEL STOP #205,location_details.php?id=15161,https://www.truckstopsandservices.com/location_details.php?id=15161,Trucker,loves-travel-stops-country-stores_416x416,35.594532,-97.437003,I-35,137,12225 N I-35 SERVICE RD,OKLAHOMA CITY,OK,73131,405-478-5766 (TRAVEL CENTER),405-478-5766 (SUBWAY),405-475-9467,,,18,0,0,5,4,0,,,,405-478-5766 (GODFATHER'S PIZZA),,,,,,,
36,Oklahoma,LOVE'S TRAVEL STOP #211,location_details.php?id=15158,https://www.truckstopsandservices.com/location_details.php?id=15158,Trucker,loves-travel-stops-country-stores_416x416,35.377417,-97.495816,I-35,120,845 SE 89TH ST,OKLAHOMA CITY,OK,73149,405-632-3566 (TRAVEL CENTER),405-632-3566 (SUBWAY),405-634-7064,,,12,0,0,6,0,2,,,,,,,,,,,
36,Oklahoma,LOVE'S TRAVEL STOP #213,location_details.php?id=15176,https://www.truckstopsandservices.com/location_details.php?id=15176,Trucker,loves-travel-stops-country-stores_416x416,36.651628,-97.342282,I-35,211,16501 W FOUNTAIN RD,TONKAWA,OK,74653,580-628-5335 (TRAVEL CENTER),580-628-5335 (CHESTER'S FRIED CHICKEN),580-628-3449,,,110,0,0,6,5,4,,,,580-628-5335 (SUBWAY),,,,,,,
36,Oklahoma,LOVE'S TRAVEL STOP #219,location_details.php?id=15173,https://www.truckstopsandservices.com/location_details.php?id=15173,Trucker,loves-travel-stops-country-stores_416x416,35.381857,-96.671181,I-40,200,11268 OK 99,SEMINOLE,OK,74868,405-382-7714 (TRAVEL CENTER),405-382-7714 (SUBWAY),405-382-7165,,,16,,,3,0,0,,,,,,,,,,,
36,Oklahoma,LOVE'S TRAVEL STOP #248,location_details.php?id=15122,https://www.truckstopsandservices.com/location_details.php?id=15122,Trucker,loves-travel-stops-country-stores_416x416,35.518474,-98.870334,I-40,71,10331 N 2310 RD,CUSTER CITY,OK,73601,580-323-1022 (TRAVEL CENTER),580-323-1022 (SUBWAY),580-323-0035,,,18,0,0,4,0,0,,,,,,,,,,,
36,Oklahoma,LOVE'S TRAVEL STOP #253,location_details.php?id=15128,https://www.truckstopsandservices.com/location_details.php?id=15128,Trucker,loves-travel-stops-country-stores_416x416,35.224252,-99.869315,I-40,7,901 N SHEB WOOLEY AVE,ERICK,OK,73645,580-526-3345 (TRAVEL CENTER),580-526-3345 (SUBWAY),580-526-3896,,,52,0,0,4,4,2,,,,,,,,,,,
36,Oklahoma,LOVE'S TRAVEL STOP #255,location_details.php?id=15181,https://www.truckstopsandservices.com/location_details.php?id=15181,Trucker,loves-travel-stops-country-stores_416x416,35.485833,-95.149711,I-40,287,214 S HWY 100,WEBBERS FALLS,OK,74470,918-464-2865 (TRAVEL CENTER),918-464-2865 (BURGER KING),918-464-2866,,,80,0,0,7,5,3,,,,918-464-2865 (SUBWAY),,,,,,,
36,Oklahoma,LOVE'S TRAVEL STOP #260,location_details.php?id=15150,https://www.truckstopsandservices.com/location_details.php?id=15150,Trucker,loves-travel-stops-country-stores_416x416,35.182844,-97.499076,I-35,106,5029 SE 44TH ST,NORMAN,OK,73072,405-364-0059 (TRAVEL CENTER),405-364-0059 (SUBWAY),405-366-8562,,,15,0,0,3,0,0,,,,405-364-0059 (GODFATHER'S PIZZA),,,,,,,
36,Oklahoma,LOVE'S TRAVEL STOP #263,location_details.php?id=15147,https://www.truckstopsandservices.com/location_details.php?id=15147,Trucker,loves-travel-stops-country-stores_416x416,34.713704,-98.402539,I-44,45,24169 OK 49,LAWTON,OK,73507,580-529-2882 (TRAVEL CENTER),580-529-2882 (SUBWAY),580-529-2445,,,29,0,0,3,0,0,,,,,,,,,,,
36,Oklahoma,LOVE'S TRAVEL STOP #266,location_details.php?id=15102,https://www.truckstopsandservices.com/location_details.php?id=15102,Trucker,loves-travel-stops-country-stores_416x416,34.188435,-97.170502,I-35,32,3201 NW 12TH AVE,ARDMORE,OK,73401,580-226-0973 (TRAVEL CENTER),580-226-0973 (SUBWAY),580-226-0833,,,86,0,0,6,5,2,,,,580-226-0973 (GODFATHER'S PIZZA),,,,,,,
36,Oklahoma,LOVE'S TRAVEL STOP #268,location_details.php?id=51553,https://www.truckstopsandservices.com/location_details.php?id=51553,Trucker,loves-travel-stops-country-stores_416x416,34.366862,-96.140479,US 69,,1935 S MISSISSIPPI AVE,ATOKA,OK,74525,580-889-9394 (TRAVEL CENTER),580-889-9394 (SUBWAY),580-889-2061,,,22,0,0,4,3,0,,,,580-889-9394 (CHESTER'S FRIED CHICKEN),,,,,,,
36,Oklahoma,LOVE'S TRAVEL STOP #274,location_details.php?id=15044,https://www.truckstopsandservices.com/location_details.php?id=15044,Trucker,loves-travel-stops-country-stores_416x416,35.420745,-96.301535,I-40,221,102 W COPLIN ST,OKEMAH,OK,74859,918-623-2024 (TRAVEL CENTER),918-623-2024 (CHESTER'S FRIED CHICKEN),918-623-2046,,,20,0,0,5,3,0,,,,918-623-2024 (LOVE'S SUBS),918-623-2024 (GODFATHER'S PIZZA),,,,,,
36,Oklahoma,LOVE'S TRAVEL STOP #295,location_details.php?id=11637,https://www.truckstopsandservices.com/location_details.php?id=11637,Trucker,loves-travel-stops-country-stores_416x416,36.162661,-95.342585,US 69,US 412,4564 W 590,CHOUTEAU,OK,74337,918-476-4691 (TRAVEL CENTER),918-476-4691 (SUBWAY),918-476-4693,,,25,0,0,5,4,0,,,,,,,,,,,
36,Oklahoma,LOVE'S TRAVEL STOP #302,location_details.php?id=11617,https://www.truckstopsandservices.com/location_details.php?id=11617,Trucker,loves-travel-stops-country-stores_416x416,36.729481,-102.500188,US 412,US 287,1100 E MAIN ST,BOISE CITY,OK,73933,580-544-4431 (TRAVEL CENTER),580-544-4431 (SUBWAY),580-544-4434,,,60,0,0,5,4,0,,,,,,,,,,,
36,Oklahoma,LOVE'S TRAVEL STOP #373,location_details.php?id=15117,https://www.truckstopsandservices.com/location_details.php?id=15117,Trucker,loves-travel-stops-country-stores_416x416,33.881735,-96.50063,US 75,PATTER RD,2150 LEAVENWORTH TRAIL,COLBERT,OK,74733,580-296-5940 (TRAVEL CENTER),580-296-5940 (CHESTER'S FRIED CHICKEN),580-296-5942,,,87,0,0,7,5,4,,,,580-296-5940 (SUBWAY),,,,,,,
36,Oklahoma,LOVE'S TRAVEL STOP #385,location_details.php?id=1919,https://www.truckstopsandservices.com/location_details.php?id=1919,Trucker,loves-travel-stops-country-stores_416x416,35.526065,-98.351625,I-40,101,5602 N BROADWAY AVE,HINTON,OK,73047,405-542-3836 (TRAVEL CENTER),405-542-3836 (SONIC),405-542-3847,,,90,0,0,6,6,3,,,,405-542-3836 (GODFATHER'S PIZZA),405-542-3836 (CHESTER'S FRIED CHICKEN),,,,,,
36,Oklahoma,LOVE'S TRAVEL STOP #452,location_details.php?id=15168,https://www.truckstopsandservices.com/location_details.php?id=15168,Trucker,loves-travel-stops-country-stores_416x416,34.707625,-97.242387,I-35,70,1601 AIRLINE RD,PAULS VALLEY,OK,73075,405-207-9692 (TRAVEL CENTER),405-207-9692 (BURGER KING),405-207-9793,,,88,0,0,7,5,3,,,,,,,,,,,
36,Oklahoma,LOVE'S TRAVEL STOP #46,location_details.php?id=15144,https://www.truckstopsandservices.com/location_details.php?id=15144,Trucker,loves-travel-stops-country-stores_416x416,36.858544,-101.209879,US 54,US 64,201 US 54,HOOKER,OK,73945,580-652-2001 (TRAVEL CENTER),580-652-2001 (SUBWAY),580-652-2355,,,33,,,4,3,0,,,,,,,,,,,
36,Oklahoma,LOVE'S TRAVEL STOP #486,location_details.php?id=46803,https://www.truckstopsandservices.com/location_details.php?id=46803,Trucker,loves-travel-stops-country-stores_416x416,35.396178,-97.265237,I-40,166,7401 S CHOCTAW RD,CHOCTAW,OK,73020,405-391-3855 (TRAVEL CENTER),405-391-3855 (SUBWAY),405-391-7780,,,85,0,0,7,7,3,,,,405-391-3855 (MCDONALD'S),,,,,,,
36,Oklahoma,LOVE'S TRAVEL STOP #604,location_details.php?id=46813,https://www.truckstopsandservices.com/location_details.php?id=46813,Trucker,loves-travel-stops-country-stores_416x416,35.880976,-97.389958,I-35,157,2700 E HWY 33,GUTHRIE,OK,73044,405-260-1493 (TRAVEL CENTER),405-260-1493 (CARL'S JR),405-260-1536,,,105,0,0,7,7,3,,,,,,,,,,,
36,Oklahoma,LOVE'S TRAVEL STOP #630,location_details.php?id=46807,https://www.truckstopsandservices.com/location_details.php?id=46807,Trucker,loves-travel-stops-country-stores_416x416,36.39921,-97.820003,US 412,42ND ST,4104 E RANDOLPH AVE,ENID,OK,73701,580-237-1901 (TRAVEL CENTER),580-237-1901 (CARL'S JR.),580-237-1908,,,63,0,0,6,5,0,,,,,,,,,,,
36,Oklahoma,LOVE'S TRAVEL STOP #636,location_details.php?id=46824,https://www.truckstopsandservices.com/location_details.php?id=46824,Trucker,loves-travel-stops-country-stores_416x416,36.719464,-95.628664,US 169,,106 AIRPORT DR,NOWATA,OK,74048,918-273-5640 (TRAVEL CENTER),918-273-5640 (SUBWAY),918-273-5646,,,38,0,0,4,2,0,,,,,,,,,,,
36,Oklahoma,LOVE'S TRAVEL STOP #638,location_details.php?id=46834,https://www.truckstopsandservices.com/location_details.php?id=46834,Trucker,loves-travel-stops-country-stores_416x416,36.505443,-101.774699,US 54,,1430 US 54,TEXHOMA,OK,73949,580-423-6126 (TRAVEL CENTER),580-423-6126 (SUBWAY),580-423-6131,,,60,0,0,5,2,0,,,,580-423-6126 (CHESTER'S FRIED CHICKEN),,,,,,,
36,Oklahoma,LOVE'S TRAVEL STOP #648,location_details.php?id=46839,https://www.truckstopsandservices.com/location_details.php?id=46839,Trucker,loves-travel-stops-country-stores_416x416,34.003902,-95.101101,US 70,,701 W WILSON AVE,VALLIANT,OK,74764,580-933-5683 (TRAVEL CENTER),580-933-5683 (SUBWAY),580-933-7827,,,75,0,0,4,2,0,,,,,,,,,,,
36,Oklahoma,LOVE'S TRAVEL STOP #654,location_details.php?id=46838,https://www.truckstopsandservices.com/location_details.php?id=46838,Trucker,loves-travel-stops-country-stores_416x416,35.406186,-97.93879,US 81,59TH ST,21000 SW 59TH ST,UNION CITY,OK,73090,405-483-5600 (TRAVEL CENTER),405-483-5600 (SUBWAY),405-483-5602,,,30,0,0,3,2,0,,,,,,,,,,,
36,Oklahoma,LOVE'S TRAVEL STOP #658,location_details.php?id=46842,https://www.truckstopsandservices.com/location_details.php?id=46842,Trucker,loves-travel-stops-country-stores_416x416,36.176212,-94.574258,US 412,,3033 US 412,WEST SILOAM SPRINGS,OK,74964,918-422-4300 (TRAVEL CENTER),918-422-4300 (CHESTER'S FRIED CHICKEN),918-422-4036,,,41,0,0,4,2,2,,,,918-422-4300 (GODFATHER'S PIZZA),,,,,,,
36,Oklahoma,LOVE'S TRAVEL STOP #675,location_details.php?id=46825,https://www.truckstopsandservices.com/location_details.php?id=46825,Trucker,loves-travel-stops-country-stores_416x416,35.637279,-95.962203,US 75,,1300 N WOOD DR,OKMULGEE,OK,74447,918-758-4362 (TRAVEL CENTER),918-758-4362 (CARL'S JR),918-758-4365,,,55,0,0,4,5,0,,,,,,,,,,,
36,Oklahoma,LOVE'S TRAVEL STOP #68,location_details.php?id=56227,https://www.truckstopsandservices.com/location_details.php?id=56227,Trucker,loves-travel-stops-country-stores_416x416,34.002465,-96.373196,US 69,,1223 N 1ST AVE,DURANT,OK,74701,580-924-9304 (TRAVEL CENTER),580-924-9304 (GODFATHER'S PIZZA),580-924-9304,,,0,0,0,2,0,0,,,,580-924-9304 (BIG BOSS SUBS),,,,,,,
36,Oklahoma,LOVE'S TRAVEL STOP #712,location_details.php?id=46843,https://www.truckstopsandservices.com/location_details.php?id=46843,Trucker,loves-travel-stops-country-stores_416x416,35.276584,-97.601733,I-44,107,234 NW 24TH ST,NEWCASTLE,OK,73065,405-387-2660 (TRAVEL CENTER),405-387-2660 (SUBWAY),405-387-2664,,,48,0,0,6,5,0,,,,405-387-2660 (DUNKIN' DONUTS),,,,,,,
36,Oklahoma,LOVE'S TRAVEL STOP #727,location_details.php?id=51554,https://www.truckstopsandservices.com/location_details.php?id=51554,Trucker,loves-travel-stops-country-stores_416x416,36.567946,-95.218877,I-44,283/ HWY 69,437071 E 310 RD,BIG CABIN,OK,74332,918-783-5300 (TRAVEL CENTER),918-783-5300 (CARL'S JR),918-783-5376,,,79,0,0,8,7,0,,,,,,,,,,,
36,Oklahoma,LOVE'S TRAVEL STOP #734,location_details.php?id=46844,https://www.truckstopsandservices.com/location_details.php?id=46844,Trucker,loves-travel-stops-country-stores_416x416,34.17354,-98.49784,I-44,5,251344 US 70,RANDLETT,OK,73562,580-281-3563 (TRAVEL CENTER),580-281-3563 (SUBWAY),580-281-3565,,,55,0,0,4,4,0,,,,,,,,,,,
36,Oklahoma,LOVE'S TRAVEL STOP #737,location_details.php?id=48343,https://www.truckstopsandservices.com/location_details.php?id=48343,Trucker,loves-travel-stops-country-stores_416x416,35.499279,-97.902375,I-40,127,3900 S RADIO RD,EL RENO,OK,73036,405-422-1904 (TRAVEL CENTER),405-422-1904 (CARL'S JR),405-422-1926,,,95,0,0,9,7,0,,,,,,,,,,,
36,Oklahoma,LOVE'S TRAVEL STOP #74,location_details.php?id=46841,https://www.truckstopsandservices.com/location_details.php?id=46841,Trucker,loves-travel-stops-country-stores_416x416,34.837076,-97.609329,OK 19,,502 W CHEROKEE ST,LINDSAY,OK,73052,405-756-4826 (TRAVEL CENTER),405-756-4826 (CHESTER'S FRIED CHICKEN),405-756-3807,,,13,0,0,3,0,0,,,,405-756-4826 (SUBWAY),,,,,,,
36,Oklahoma,LOVE'S TRAVEL STOP #794,location_details.php?id=52449,https://www.truckstopsandservices.com/location_details.php?id=52449,Trucker,loves-travel-stops-country-stores_416x416,35.840313,-98.394603,OK 3/33,E OF N2580 RD,1520 E RUSSWORM DR,WATONGA,OK,73772,580-623-2206 (TRAVEL CENTER),580-623-2206 (SUBWAY),580-623-2209,,,50,0,0,4,4,0,,,,580-623-2206 (CHESTER'S FRIED CHICKEN),,,,,,,
36,Oklahoma,LOVE'S TRAVEL STOP #865,location_details.php?id=57643,https://www.truckstopsandservices.com/location_details.php?id=57643,Trucker,loves-travel-stops-country-stores_416x416,36.29071,-97.325119,I-35,186,2805 W FIR ST,PERRY,OK,73077,580-572-6204 (TRAVEL CENTER),580-572-6204 (ARBY'S),580-572-6205,,,60,0,0,6,5,,,,,,,,,,,,
36,Oklahoma,MAIN STREET TRUCK STOP,location_details.php?id=18770,https://www.truckstopsandservices.com/location_details.php?id=18770,Trucker,sinclair_oil_.svg,36.117162,-97.898708,US 81/51,,101 E JACK CHOATE AVE,HENNESSEY,OK,73742,405-853-4528 (TRAVEL CENTER),,405-853-4960,,,15,0,0,2,0,0,,,,,,,,,,,
36,Oklahoma,MENO AMPRIDE,location_details.php?id=46819,https://www.truckstopsandservices.com/location_details.php?id=46819,Trucker,ind_dealer_1,36.390627,-98.18176,US 60,,501 US 12,MENO,OK,73760,580-776-2282 (TRAVEL CENTER),580-776-2282 (MENO DELI),,,,10,0,0,3,0,0,,,,,,,,,,,
36,Oklahoma,MONDAY'S STOP N SHOP,location_details.php?id=11652,https://www.truckstopsandservices.com/location_details.php?id=11652,Trucker,ind_dealer_1,36.604267,-95.935212,US 75,,28572 US 75,OCHELATA,OK,74051,918-535-2112 (TRAVEL CENTER),,,,,21,,,2,0,0,,,,,,,,,,,
36,Oklahoma,MUSKOGEE TRAVEL PLAZA,location_details.php?id=46821,https://www.truckstopsandservices.com/location_details.php?id=46821,Trucker,66gas,35.797586,-95.401168,US 69,,3950 N 32ND ST,MUSKOGEE,OK,74401,918-687-3650 (TRAVEL CENTER),,918-687-3650,,,35,0,0,3,2,0,,,,,,,,,,,
36,Oklahoma,NINNEKAH TRUCK STOP,location_details.php?id=46823,https://www.truckstopsandservices.com/location_details.php?id=46823,Trucker,valero,34.956894,-97.95134,US 277,US 81,1240 US 277,NINNEKAH,OK,73067,405-224-0055 (TRAVEL CENTER),405-224-0055 (NINNEKAH DELI),,,,15,0,0,4,0,0,,,,,,,,,,,
36,Oklahoma,OKEMAH TRAVEL CENTER,location_details.php?id=18904,https://www.truckstopsandservices.com/location_details.php?id=18904,Trucker,ind_dealer_1,35.424216,-96.298427,I-40,221,706 S WOODY GUNTHRIE ST,OKEMAH,OK,74859,918-623-9600 (TRAVEL CENTER),918-623-9600 (SUBWAY),,,,25,0,0,4,2,0,,,,918-623-9600 (MISABURRITO MEXICAN GRILL),918-623-9600 (KRISPY KRUNCHY CHICKEN),,,,,,
36,Oklahoma,OKIE MART,location_details.php?id=11682,https://www.truckstopsandservices.com/location_details.php?id=11682,Trucker,66gas,36.428933,-95.526267,US 66,,12601 OK 66,FOYIL,OK,74017,918-342-4955 (TRAVEL CENTER),,918-341-3019,,,5,0,0,1,0,0,,,,,,,,,,,
36,Oklahoma,ON CUE EXPRESS,location_details.php?id=11664,https://www.truckstopsandservices.com/location_details.php?id=11664,Trucker,66gas,36.106248,-97.051545,US 177,14TH ST,1402 S PERKINS RD,STILLWATER,OK,74074,405-624-9091 (TRAVEL CENTER),,,,,0,,,3,0,0,,,,,,,,,,,
36,Oklahoma,PANEK'S GROCERY CARDLOCK,location_details.php?id=54762,https://www.truckstopsandservices.com/location_details.php?id=54762,Trucker,ind_dealer_1,35.43507,-97.247505,SE 29TH ST,,15924 SE 29TH ST,CHOCTAW,OK,73020,405-390-2800 (TRAVEL CENTER),,,,,0,0,0,2,0,0,,,,,,,,,,,
36,Oklahoma,PAWNEE NATION TRAVEL PLAZA,location_details.php?id=11679,https://www.truckstopsandservices.com/location_details.php?id=11679,Trucker,66gas,36.227842,-96.784502,US 412,,54251 S 34900 RD,PAWNEE,OK,74058,918-454-2225 (TRAVEL CENTER),918-454-2227 (HOWLERS RESTAURANT),918-454-2237,,,40,0,0,4,2,0,,,,,,,,,,,
36,Oklahoma,PENDLETON'S TRUCK STOP,location_details.php?id=2198,https://www.truckstopsandservices.com/location_details.php?id=2198,Trucker,conoco,35.438883,-99.170065,I-40,53,108974 HWY 44,FOSS,OK,73647,580-592-4777 (TRAVEL CENTER),580-592-4777 (BECKY'S DINER),580-592-4752,,,12,0,0,2,1,0,,,,,,,,,,,
36,Oklahoma,PETE'S,location_details.php?id=11662,https://www.truckstopsandservices.com/location_details.php?id=11662,Trucker,66gas,36.43736,-95.709467,US 169,,US 169,OOLAGAH,OK,74053,918-443-0004 (TRAVEL CENTER),,,,,25,0,0,2,1,0,,,,,,CR 88,,,,,
36,Oklahoma,PETE'S,location_details.php?id=18765,https://www.truckstopsandservices.com/location_details.php?id=18765,Trucker,conoco,36.402083,-97.836956,30TH ST,,510 N 30TH ST,ENID,OK,73701,580-233-3473 (TRAVEL CENTER),,,,,12,0,0,2,0,0,,,,,,,,,,,
36,Oklahoma,PETRO STOPPING CENTER #316 - INGID R. BROWN,location_details.php?id=37291,https://www.truckstopsandservices.com/location_details.php?id=37291,Trucker,petro,35.466354,-97.476484,I-40,127,20 MARTIN LUTHER KING BLVD,OKLAHOMA CITY,OK,73117,405-228-7040 (TRAVEL STORE),405-228-7040 (IRON SKILLET),405-228-7047,,,280,13,13,12,14,5,,,,,,,,,,,
36,Oklahoma,PILOT DEALER #556 - THUNDER TRAVEL PLAZA,location_details.php?id=259,https://www.truckstopsandservices.com/location_details.php?id=259,Trucker,pilot,35.390971,-97.265126,I-40,166,7501 S CHOCTAW RD,CHOCTAW,OK,73020,405-638-3000 (TRAVEL CENTER),405-638-3000 (WENDY'S),405-638-3006,,,35,0,0,5,3,2,,,,,,,,,,,
36,Oklahoma,PILOT TRAVEL CENTER #1004,location_details.php?id=46835,https://www.truckstopsandservices.com/location_details.php?id=46835,Trucker,pilot,36.695681,-97.349953,I-35,214,16600 W SOUTH AVE,TONKAWA,OK,74653,580-628-2934 (TRAVEL CENTER),580-628-2934 (TACO BELL),580-628-2941,3.599,4.259,85,4,4,8,7,0,,,,580-628-2934 (CINNABON),,,,,,,
36,Oklahoma,PILOT TRAVEL CENTER #196,location_details.php?id=17885,https://www.truckstopsandservices.com/location_details.php?id=17885,Trucker,pilot,35.404828,-94.520881,I-40,325,302 W RAY FINE BLVD,ROLAND,OK,74954,918-427-0895 (TRAVEL CENTER),918-427-0876 (WENDY'S),918-427-0862,3.399,4.259,125,6,6,8,7,0,2.599,,,,,,,,,,
36,Oklahoma,PILOT TRAVEL CENTER #259,location_details.php?id=11629,https://www.truckstopsandservices.com/location_details.php?id=11629,Trucker,pilot,35.784975,-95.402266,US 69,US 51,3000 N 32ND ST,MUSKOGEE,OK,74401,918-686-7856 (TRAVEL CENTER),918-686-0590 (SUBWAY),918-686-0597,3.399,4.259,105,5,5,9,7,0,2.749,,,,,,,,,,
36,Oklahoma,PILOT TRAVEL CENTER #460,location_details.php?id=17890,https://www.truckstopsandservices.com/location_details.php?id=17890,Trucker,pilot,35.462522,-97.688699,I-40,140,400 S MORGAN RD,OKLAHOMA CITY,OK,73128,405-440-1048 (TRAVEL CENTER),405-440-1048 (MCDONALD'S),405-440-1093,3.299,4.359,145,5,5,10,10,4,2.459,,,,,,,,,,
36,Oklahoma,PILOT TRAVEL CENTER #498,location_details.php?id=46801,https://www.truckstopsandservices.com/location_details.php?id=46801,Trucker,pilot,34.3648,-96.140826,US 69/75,,1954 S MISSISSIPPI AVE,ATOKA,OK,74525,580-364-0232 (TRAVEL CENTER),580-364-0232 (MOE'S SOUTHWEST GRILL),580-364-0281,3.599,4.259,63,10,10,8,5,0,,,,580-364-0232 (CINNABON),,,,,,,
36,Oklahoma,PUMP'N PETE'S,location_details.php?id=11655,https://www.truckstopsandservices.com/location_details.php?id=11655,Trucker,66gas,36.814231,-95.935097,US 75,,2390 N OSAGE AVE,DEWEY,OK,74029,918-534-2032 (TRAVEL CENTER),918-534-2032 (SUBWAY),,,,25,0,0,4,1,0,,,,,,,,,,,
36,Oklahoma,QUICKTRIP,location_details.php?id=46820,https://www.truckstopsandservices.com/location_details.php?id=46820,Trucker,quiktrip-,35.769349,-95.403871,US 69,,1919 N 32ND ST,MUSKOGEE,OK,74401,918-681-7507 (TRAVEL CENTER),,,,,20,0,0,5,0,0,,,,,,,,,,,
36,Oklahoma,QUIKTRIP,location_details.php?id=2693,https://www.truckstopsandservices.com/location_details.php?id=2693,Trucker,quiktrip-,36.075767,-96.047652,I-44,222-A,6008 S 49TH W AVE,TULSA,OK,74107,918-446-5500 (TRAVEL CENTER),918-446-5500 (QUIKTRIP CAFE),918-446-6888,,,35,0,0,9,0,0,,,,,,,,,,,
36,Oklahoma,QUIKTRIP,location_details.php?id=2694,https://www.truckstopsandservices.com/location_details.php?id=2694,Trucker,quiktrip-,36.165146,-95.794594,I-44,238,16141 E SKELLEY DR,TULSA,OK,74116,918-234-0380 (TRAVEL CENTER),918-234-0380 (QT KITCHEN),918-439-9743,,,79,0,0,8,0,0,,,,,,,,,,,
36,Oklahoma,QWIK CHEK,location_details.php?id=11651,https://www.truckstopsandservices.com/location_details.php?id=11651,Trucker,valero,33.895432,-94.851335,US 70,,100 SW LINCOLN RD,IDABEL,OK,74745,580-208-2227 (TRAVEL CENTER),,,,,20,0,0,3,1,0,,,,,,,,,,,
36,Oklahoma,R & R TRUCK STOP,location_details.php?id=54918,https://www.truckstopsandservices.com/location_details.php?id=54918,Trucker,shell_,35.435319,-96.016752,I-40,237,102 DEWEY BARTLETT RD,HENRYETTA,OK,74437,918-652-7436 (TRAVEL CENTER),,,,,30,0,0,4,0,0,,,,,,,,,,,
36,Oklahoma,RIVERSIDE GAS N GRILL,location_details.php?id=46814,https://www.truckstopsandservices.com/location_details.php?id=46814,Trucker,valero,35.872461,-97.585224,OK 74/33,,775 OK 74,GUTHRIE,OK,73044,405-282-7676 (TRAVEL CENTER),405-282-7676 (RIVERSIDE RESTAURANT),405-282-4373,,,13,0,0,4,0,0,,,,,,,,,,,
36,Oklahoma,ROLAND,location_details.php?id=2797,https://www.truckstopsandservices.com/location_details.php?id=2797,Trucker,66gas,35.405405,-94.522045,I-40,325,305 W RAY FINE BLVD,ROLAND,OK,74954,918-427-5100 (TRAVEL CENTER),918-427-5100 (MCDONALD'S),,,,26,0,0,4,0,0,,,,,,,,,,,
36,Oklahoma,SALLISAW TRAVEL CENTER,location_details.php?id=2836,https://www.truckstopsandservices.com/location_details.php?id=2836,Trucker,valero,35.446442,-94.806474,I-40,308,1504 LENINGTON RD,SALLISAW,OK,74955,918-775-5133 (TRAVEL CENTER),,,,,30,0,0,5,4,0,,,,,,,,,,,
36,Oklahoma,SHELL,location_details.php?id=46837,https://www.truckstopsandservices.com/location_details.php?id=46837,Trucker,shell_,36.6952,-97.350304,I-35,214,16625 W SOUTH AVE,TONKAWA,OK,74653,580-628-2020 (TRAVEL CENTER),,,,,23,0,0,6,4,0,,,,,,,,,,,
36,Oklahoma,SHELL FOOD PLAZA,location_details.php?id=2896,https://www.truckstopsandservices.com/location_details.php?id=2896,Trucker,shell_,35.502169,-97.848566,I-40,130,3156 N BANNER RD,EL RENO,OK,73036,405-350-7530 (TRAVEL CENTER),,,,,10,0,0,2,0,0,,,,,,,,,,,
36,Oklahoma,SINCLAIR,location_details.php?id=2878,https://www.truckstopsandservices.com/location_details.php?id=2878,Trucker,sinclair_oil_.svg,35.381449,-96.671956,I-40,200,11271 N HWY 99,SEMINOLE,OK,74868,405-382-1616 (TRAVEL CENTER),,,,,0,0,0,4,0,0,,,,,,,,,,,
36,Oklahoma,SOONERS CORNER,location_details.php?id=2952,https://www.truckstopsandservices.com/location_details.php?id=2952,Trucker,66gas,36.275294,-97.329206,I-35,185,3103 US 77,PERRY,OK,73077,580-336-4460 (TRAVEL CENTER),,,,,32,0,0,4,4,4,,,,,,,,,,,
36,Oklahoma,SPEEDY'S,location_details.php?id=46816,https://www.truckstopsandservices.com/location_details.php?id=46816,Trucker,sinclair_oil_.svg,36.431387,-94.782655,US 59,,908 N MAIN ST,JAY,OK,74346,918-253-6600 (TRAVEL CENTER),918-253-6600 (SIMPLE SIMONS DELI),,,,18,0,0,3,0,0,,,,,,,,,,,
36,Oklahoma,SPEEDY'S 66,location_details.php?id=11636,https://www.truckstopsandservices.com/location_details.php?id=11636,Trucker,66gas,35.962074,-95.394724,US 69,,303 BLAKE DR,WAGONER,OK,74467,918-485-5533 (TRAVEL CENTER),918-485-5533 (SPEEDY'S DELI),,,,20,0,0,7,0,0,,,,,,,,,,,
36,Oklahoma,SPRINGER VALERO,location_details.php?id=3020,https://www.truckstopsandservices.com/location_details.php?id=3020,Trucker,valero,34.303488,-97.157616,I-35,40,11519 STATE HWY 53,SPRINGER,OK,73458,580-653-2464 (TRAVEL CENTER),,580-653-2464,,,70,0,0,3,2,0,,,,,,,,,,,
36,Oklahoma,STAR TRAVEL PLAZA,location_details.php?id=3035,https://www.truckstopsandservices.com/location_details.php?id=3035,Trucker,shell_,34.980995,-97.374994,I-35,91,2425 OK-74,PURCELL,OK,73080,405-527-5300 (TRAVEL CENTER),405-527-5300 (A & W),405-257-4090,,,18,0,0,4,0,0,,,,405-527-5300 (LONG JOHN SILVERS),405-527-5300 (TACO BELL),,,,,,
36,Oklahoma,STUCKEY'S TRAVEL CENTER,location_details.php?id=55119,https://www.truckstopsandservices.com/location_details.php?id=55119,Trucker,66gas,33.940139,-97.138005,I-35,15,1501 MEMORIAL DR,MARIETTA,OK,73448,580-276-9600 (TRAVEL CENTER),580-276-9600 (TJ'S),,,,10,0,0,2,0,0,,,,,,,,,,,
36,Oklahoma,SUNSET CORNER MART,location_details.php?id=11672,https://www.truckstopsandservices.com/location_details.php?id=11672,Trucker,ind_dealer_1,35.238093,-94.674354,US 59,US 271,19883 US 59,SPIRO,OK,74959,918-962-2225 (TRAVEL CENTER),,,,,10,0,0,3,2,0,,,,,,,,,,,
36,Oklahoma,SYNERGY FLASH MART,location_details.php?id=3177,https://www.truckstopsandservices.com/location_details.php?id=3177,Trucker,valero,35.47846,-97.464107,I-35,129,2700 NE 10TH ST,OKLAHOMA CITY,OK,73117,405-424-4677 (TRAVEL CENTER),405-424-4677 (MCDONALD'S),,,,23,0,0,4,0,0,,,,,,,,,,,
36,Oklahoma,TA Express Tonkawa,location_details.php?id=64926,https://www.truckstopsandservices.com/location_details.php?id=64926,Trucker,,36.69613,-97.35061,I-35,,,Tonkawa,OK,74653,580-225-2561,,,,,,,,,,,,,,,,,,,,,
36,Oklahoma,THACKERVILLE TRAVEL STOP,location_details.php?id=3271,https://www.truckstopsandservices.com/location_details.php?id=3271,Trucker,66gas,33.736629,-97.14349,I-35,1,22983 BROWN SPRINGS RD,THACKERVILLE,OK,73459,580-276-4706 (TRAVEL CENTER),580-276-4706 (THE GRILL),,,,58,0,0,4,0,0,,,,,,,,,,,
36,Oklahoma,THE CURVE JIFFY TRIP,location_details.php?id=11678,https://www.truckstopsandservices.com/location_details.php?id=11678,Trucker,ind_dealer_1,36.388161,-98.444554,US 412,,43197 S CO RD 256,CLEO SPRINGS,OK,73729,580-438-2571 (TRAVEL CENTER),,,,,12,0,0,3,0,0,,,,,,,,,,,
36,Oklahoma,THE STATION II,location_details.php?id=11681,https://www.truckstopsandservices.com/location_details.php?id=11681,Trucker,66gas,36.176185,-94.567388,US 412,,137 S US 59,WATTS,OK,74964,918-422-8835 (TRAVEL CENTER),918-422-8835 (HOMESTYLE KITCHEN),918-422-4615,,,21,0,0,3,0,0,,,,918-422-8835 (HUNT BROTHERS PIZZA),,,,,,,
36,Oklahoma,TNT CONVENIENCE CENTER,location_details.php?id=11658,https://www.truckstopsandservices.com/location_details.php?id=11658,Trucker,diamondshamrock,35.052629,-97.939637,US 81,,528 W CHOCTAW AVE,CHICKASHA,OK,73018,405-224-2027 (TRAVEL CENTER),,,,,0,0,0,2,0,0,,,,,,,,,,,
36,Oklahoma,TO GO EXPRESS,location_details.php?id=46828,https://www.truckstopsandservices.com/location_details.php?id=46828,Trucker,66gas,36.289439,-97.324987,I-35,186,2812 FIR ST,PERRY,OK,73077,580-336-9110 (TRAVEL CENTER),580-336-9110 (SUBWAY),,,,20,0,0,4,2,0,,,,,,,,,,,
36,Oklahoma,TO GO EXPRESS TRAVEL PLAZA #2,location_details.php?id=18772,https://www.truckstopsandservices.com/location_details.php?id=18772,Trucker,caseys-general-store-,36.695458,-97.35032,I-35,214,16700 W SOUTH AVE,TONKAWA,OK,74653,580-628-2828 (TRAVEL CENTER),,580-628-2150,,,25,0,0,5,3,0,,,,,,,,,,,
36,Oklahoma,TONKAWA TRADING POST,location_details.php?id=55189,https://www.truckstopsandservices.com/location_details.php?id=55189,Trucker,valero,36.694651,-97.342245,I-35,214,16401 W SOUTH AVE,TONKAWA,OK,74653,580-308-6102 (TRAVEL CENTER),580-308-6102 (A&W),580-308-6104,,,20,0,0,4,4,0,,,,580-308-6102 (PAPA JOHN'S),,,,,,,
36,Oklahoma,TONY'S TRUCK STOP,location_details.php?id=11660,https://www.truckstopsandservices.com/location_details.php?id=11660,Trucker,shell_,35.831956,-97.933749,US 81,,100 MITCHELL BLVD,KINGFISHER,OK,73750,405-375-6666 (TRAVEL CENTER),,405-375-5197,,,47,0,0,4,1,0,,,,,,,,,,,
36,Oklahoma,TOTE-A-POKE,location_details.php?id=11611,https://www.truckstopsandservices.com/location_details.php?id=11611,Trucker,ind_dealer_1,35.253748,-94.477866,OK 112,,601 S POCOLA BLVD,POCOLA,OK,74902,918-436-7374 (TRAVEL CENTER),918-436-7374 (SIMPLE SIMONS DELI),,,,6,0,0,3,0,0,,,,,,,,,,,
36,Oklahoma,TRAVEL CENTERS OF AMERICA #036,location_details.php?id=3219,https://www.truckstopsandservices.com/location_details.php?id=3219,Trucker,catscale3,35.457109,-97.657062,I-40,142,801 S COUNCIL RD,OKLAHOMA CITY,OK,73128,405-787-7411 (TRAVEL CENTER),405-787-7411 (COUNTRY PRIDE RESTAURANT),405-789-2561,,,175,14,14,10,12,6,,,,,,,,,,,
36,Oklahoma,TRAVEL CENTERS OF AMERICA #059,location_details.php?id=16416,https://www.truckstopsandservices.com/location_details.php?id=16416,Trucker,catscale3,35.461873,-97.689472,I-40,140,501 S MORGAN RD,OKLAHOMA CITY,OK,73128,405-324-5376 (TRAVEL CENTER),405-324-5376 (FAZOLI'S),405-324-8037,,,101,8,8,8,8,3,,,,405-324-5376 (POPEYE'S),,,,,,,
36,Oklahoma,TRAVEL CENTERS OF AMERICA #152,location_details.php?id=16421,https://www.truckstopsandservices.com/location_details.php?id=16421,Trucker,catscale3,35.335176,-99.59386,I-40,26,11603 N 1900 RD,SAYRE,OK,73662,580-928-5571 (TRAVEL CENTER),580-928-5571 (TACO BELL),580-928-5425,,,101,6,6,10,7,2,,,,580-928-5571 (SUBWAY),,,,,,,
36,Oklahoma,TRAVEL STOP,location_details.php?id=3511,https://www.truckstopsandservices.com/location_details.php?id=3511,Trucker,shell_,35.593759,-97.430995,I-35/44,137,5300 NE 122ND ST,OKLAHOMA CITY,OK,73131,405-478-3052 (TRAVEL CENTER),,405-478-5750,,,120,0,0,6,5,1,,,,,,,,,,,
36,Oklahoma,TRAVELLER'S STOP,location_details.php?id=46833,https://www.truckstopsandservices.com/location_details.php?id=46833,Trucker,exxon,34.332809,-97.154485,I-35,42,12672 OK-53,SPRINGER,OK,73458,580-653-2428 (TRAVEL CENTER),580-653-2428 (SUBWAY),,,,15,0,0,4,0,0,,,,,,,,,,,
36,Oklahoma,TUSHKA TRUCK STOP,location_details.php?id=11635,https://www.truckstopsandservices.com/location_details.php?id=11635,Trucker,valero,34.3201,-96.167091,US 69/75,,102 S JEFFERSON HWY,TUSHKA,OK,74525,580-889-3275 (TRAVEL CENTER),,580-889-3275,,,0,0,0,3,0,0,,,,,,,,,,,
36,Oklahoma,VALERO CITY MART,location_details.php?id=3598,https://www.truckstopsandservices.com/location_details.php?id=3598,Trucker,valero,35.406119,-97.495925,I-35,122-B,924 SE 59TH ST,OKLAHOMA CITY,OK,73129,405-632-1166 (TRAVEL CENTER),,,,,0,0,0,2,0,0,,,,,,,,,,,
36,Oklahoma,WES T GO STOP,location_details.php?id=11616,https://www.truckstopsandservices.com/location_details.php?id=11616,Trucker,conoco,36.689133,-101.466944,US 54,,1201 NE 12TH ST,GUYMON,OK,73942,580-338-1327 (TRAVEL CENTER),,,,,0,0,0,3,0,0,,,,,,,,,,,
36,Oklahoma,WES-T-GO - GUYMON,location_details.php?id=13375,https://www.truckstopsandservices.com/location_details.php?id=13375,Trucker,conoco,36.688341,-101.46707,US 54,,1015 E US 54,GUYMON,OK,73942,580-338-4228 (TRAVEL CENTER),,580-338-4431,,,70,0,0,5,5,0,,,,,,,,,,,
36,Oklahoma,WILLIAMS EXPRESS,location_details.php?id=2191,https://www.truckstopsandservices.com/location_details.php?id=2191,Trucker,66gas,34.739203,-97.265499,I-35,72,3002 W GRANT AVE,PAULS VALLEY,OK,73075,405-238-3216 (TRAVEL CENTER),,405-238-3105,,,12,0,0,5,0,0,,,,,,,,,,,
36,Oklahoma,WILSON TRAVEL STOP,location_details.php?id=11650,https://www.truckstopsandservices.com/location_details.php?id=11650,Trucker,66gas,34.172474,-97.413386,US 70,,288 MULBERRY LANE,WILSON,OK,73463,580-668-9248 (TRAVEL CENTER),,,,,20,,,2,0,0,,,,,,,,,,,
36,Oklahoma,WOODSHED,location_details.php?id=46832,https://www.truckstopsandservices.com/location_details.php?id=46832,Trucker,ind_dealer_1,36.998119,-95.621228,US 169,,124 WILLOW ST,SOUTH COFFEYVILLE,OK,74072,918-255-6125 (TRAVEL CENTER),,,,,3,0,0,3,1,0,,,,,,,,,,,
36,Oklahoma,WOODSHED OF BIG CABIN,location_details.php?id=341,https://www.truckstopsandservices.com/location_details.php?id=341,Trucker,woodshed_at_big_cabin444444,36.565083,-95.220513,I-44,283,31209 US 69,BIG CABIN,OK,74332,918-783-5121 (TRAVEL CENTER),918-783-5121 (SUBWAY),918-783-5142,,,100,0,0,6,12,0,,,,918-783-5121 (CHERROKEE RESTAURANT),,,,,,,
36,Oklahoma,WOODSHED OF BIG CABIN,location_details.php?id=23022,https://www.truckstopsandservices.com/location_details.php?id=23022,Trucker,woodshed_at_big_cabin444444,36.565101,-95.220576,US 69,I-44,31209 US 69,BIG CABIN,OK,74332,918-783-5121,,918-783-5142,,,100,,,6,5,2,,,,,,,,,,,
36,Oklahoma,WOODSHED OF BUFFALO RANCH TRAVEL CENTER,location_details.php?id=450,https://www.truckstopsandservices.com/location_details.php?id=450,Trucker,ind_dealer_1,36.707784,-94.929386,I-44,302,21600 US 69,AFTON,OK,74331,918-257-4368 (TRAVEL CENTER),918-257-4368 (SUBWAY),918-257-4378,,,15,0,0,4,0,0,,,,,,,,,,,
37,Ontario,130 DELTA PARK TRUCK STOP,location_details.php?id=48141,https://www.truckstopsandservices.com/location_details.php?id=48141,Trucker,esso,43.741946,-79.689832,DELTA PARK BLVD,,130 DELTA PARK BLVD,BRAMPTON,ON,L6T 5E7,905-792-8828,,,,,0,,,6,2,0,,,,,,,,,,,
37,Ontario,18 WHEELER TRUCK STOP,location_details.php?id=22145,https://www.truckstopsandservices.com/location_details.php?id=22145,Trucker,esso,42.266089,-82.418332,HWY 2,,3613 QUEEN'S LINE,TILBURY,ON,N0P 2L0,519-682-1166,,,,,50,,,4,2,0,,,,,,,,,,,
37,Ontario,416 TRUCK STOP,location_details.php?id=22089,https://www.truckstopsandservices.com/location_details.php?id=22089,Trucker,husky,44.760056,-75.482739,HWY 401,721 (EB)/ 721 B(WB),2025 44,JOHNSTOWN,ON,K0E 1X0,613-925-5158,,913-925-5158,,,50,,,3,2,0,,,,,,,,,,,
37,Ontario,ALBERT'S & SON'S HUSKY,location_details.php?id=22153,https://www.truckstopsandservices.com/location_details.php?id=22153,Trucker,husky,48.593594,-85.278221,TCH 17,,215 HWY 17,WHITE RIVER,ON,P0M 3G0,807-822-2441,,,,,10,,,2,2,2,,,,,,,,,,,
37,Ontario,ANTRIM TRUCK CENTRE,location_details.php?id=20782,https://www.truckstopsandservices.com/location_details.php?id=20782,Trucker,ind_dealer_1,45.418604,-76.375191,TCH 17,WHITE LAKE RD,580 WHITE LAKE RD,ARNPRIOR,ON,K7S 3G9,613-623-3003 (TRAVEL CENTER),,613-623-1003,,,50,0,0,6,4,4,,,,,,,,,,,
37,Ontario,BAY TRUCK STOP,location_details.php?id=20808,https://www.truckstopsandservices.com/location_details.php?id=20808,Trucker,petro-pass,46.3557,-79.467941,HWY 11,,3060 HWY 11,NORTH BAY,ON,P1B 8G3,705-474-8410,,,,,50,,,4,2,0,,,,,,,,,,,
37,Ontario,BIG STOP,location_details.php?id=20813,https://www.truckstopsandservices.com/location_details.php?id=20813,Trucker,irving,45.798207,-77.114805,HWY 17,HWY 41,1751 PAUL MARTIN DR,PEMBROKE,ON,K8A 6W5,613-735-1066,,,,,50,,,6,4,0,,,,,,,,,,,
37,Ontario,BLOOMFIELD TRUCK STOP,location_details.php?id=22107,https://www.truckstopsandservices.com/location_details.php?id=22107,Trucker,esso,42.347974,-82.182357,HWY 401,81,22216 BLOOMFIELD RD,CHATHAM,ON,N7M-5J6,519-354-4554,,519-354-8139,,,100,,,6,4,0,,,,,,,,,,,
37,Ontario,BOB'S SERVICE CENTRE,location_details.php?id=22103,https://www.truckstopsandservices.com/location_details.php?id=22103,Trucker,ind_dealer_1,46.495751,-80.866832,TCH 17,,6822 HWY 17 E,CONISTON,ON,P0M 1M0,705-694-4486,,,,,0,,,2,0,0,,,,,,,,,,,
37,Ontario,BVD PETRO,location_details.php?id=48156,https://www.truckstopsandservices.com/location_details.php?id=48156,Trucker,esso,43.656606,-79.650593,4,,6125 ORDAN DR,MISSISSAUGA,ON,L5T 2C9,905-564-2295 (TRAVEL CENTER),,,,,50,0,0,8,4,0,,,,,,,,,,,
37,Ontario,CARDINAL TRAVEL CENTRE,location_details.php?id=22123,https://www.truckstopsandservices.com/location_details.php?id=22123,Trucker,flying-j-,44.808499,-75.400366,HWY 401,730,2085 SHANLY RD,CARDINAL,ON,K0E 1E0,613-657-4555 (TRAVEL CENTER),,613-657-1065,,,100,,,6,4,3,,,,,,,,,,,
37,Ontario,CORNER STORE ULTRAMAR,location_details.php?id=48140,https://www.truckstopsandservices.com/location_details.php?id=48140,Trucker,ind_dealer_1,44.181547,-77.446726,HWY 401,538,25 BELLEVUE DR,BELLEVILLE,ON,K8N 4Z5,613-771-1755 (TRAVEL CENTER),,,,,20,0,0,4,4,0,,,,,,,,,,,
37,Ontario,CORNWALL TRUCK STOP,location_details.php?id=48144,https://www.truckstopsandservices.com/location_details.php?id=48144,Trucker,esso,45.060344,-74.686763,401,796,6215 BOUNDARY RD,CORNWALL,ON,K6H 5R5,613-933-1414,,,,,100,0,0,12,6,0,,,,,,,,,,,
37,Ontario,CURRY HILL TRUCK STOP,location_details.php?id=22105,https://www.truckstopsandservices.com/location_details.php?id=22105,Trucker,esso,45.194486,-74.383166,HWY 401,825,6115 4TH LINE RD,BAINSVILLE,ON,K0C 1E0,613-347-2433 (TRAVEL CENTER),,,,,50,0,0,5,4,0,,,,,,,,,,,
37,Ontario,DANIELS SERVICE CENTER,location_details.php?id=20816,https://www.truckstopsandservices.com/location_details.php?id=20816,Trucker,esso,42.477617,-81.906006,HWY 401,109,21180 VICTORIA RD,RIDGETOWN,ON,N0P 2C0,519-674-5493,,,,,20,,,2,2,3,,,,,,,,,,,
37,Ontario,DRUMBO TRUCK STOP,location_details.php?id=48145,https://www.truckstopsandservices.com/location_details.php?id=48145,Trucker,shell_,43.230031,-80.606273,401,250,8066607 OXFORD RD 29,DRUMBO,ON,N0J 1G0,519-463-5088,,,,,100,,,4,2,0,,,,,,,,,,,
37,Ontario,EAGLE TRAVEL PLAZA,location_details.php?id=54229,https://www.truckstopsandservices.com/location_details.php?id=54229,Trucker,ind_dealer_1,42.230456,-82.962907,3,,5470 WALKER RD,TECUMSEH,ON,N0R 1LO,519-737-7086 (TRAVEL CENTER),,519-737-7485,,,10,0,0,6,3,0,,,,,,,,,,,
37,Ontario,ESSO CONVENIENCE STORE,location_details.php?id=54250,https://www.truckstopsandservices.com/location_details.php?id=54250,Trucker,ind_dealer_1,43.85608,-79.9914,10,,18218 HURONTARIO ST,CALEDON VILLAGE,ON,L7K 0Y6,519-927-9099 (TRAVEL CENTER),,,,,6,0,0,2,0,0,,,,,,,,,,,
37,Ontario,ESSO SERVICE AREA,location_details.php?id=48154,https://www.truckstopsandservices.com/location_details.php?id=48154,Trucker,esso,43.875011,-79.557085,400 SB,,11200 ON-400,MAPLE,ON,L6A 0A9,905-832-2248,,,,,20,,,3,0,0,,,,,,,,,,,
37,Ontario,ESSO TRUCK STOP,location_details.php?id=48148,https://www.truckstopsandservices.com/location_details.php?id=48148,Trucker,esso,45.340513,-74.896305,TCH 417,51,1515 CO RD 20,DUNVEGAN,ON,K0C 1J0,613-527-1026 (TRAVEL CENTER),,,,,50,0,0,4,0,0,,,,,,,,,,,
37,Ontario,ESSO TRUCK STOP,location_details.php?id=22149,https://www.truckstopsandservices.com/location_details.php?id=22149,Trucker,esso,48.473016,-81.401295,HWY 101,,2154 RIVERSIDE DR,TIMMINS,ON,P4N 7C5,705-268-3400,,,,,20,,,4,2,0,,,,,,,,,,,
37,Ontario,EXIT 611 TRAVEL PLAZA,location_details.php?id=20793,https://www.truckstopsandservices.com/location_details.php?id=20793,Trucker,esso,44.279509,-76.567659,HWY 401,611,1525 CENTENNIAL DR,KINGSTON,ON,K7L 4V2,613-384-8888,,613-634-3162,,,100,,,6,4,2,,,,,,,,,,,
37,Ontario,FLYING J CARDLOCK #825,location_details.php?id=48335,https://www.truckstopsandservices.com/location_details.php?id=48335,Trucker,flying-j-,43.169361,-80.215204,HWY 403,41,11 SINCLAIR BLVD,BRANTFORD,ON,N3S 7X6,865-474-3937,,,1.559,1.439,0,0,0,6,0,0,,,,,,,,,,,
37,Ontario,FLYING J CARDLOCK #837,location_details.php?id=22142,https://www.truckstopsandservices.com/location_details.php?id=22142,Trucker,flying-j-,46.43565,-81.1095,TCH 17,HWY 55,17 DUHAMEL RD,SUDBURY,ON,P3E 4N1,705-692-5447,,,,,0,0,0,4,0,0,,,,,,,,,,,
37,Ontario,FLYING J DEALER #865,location_details.php?id=20814,https://www.truckstopsandservices.com/location_details.php?id=20814,Trucker,flying-j-,43.828488,-79.047768,HWY 401,399,2000 CLEMENTS RD,PICKERING,ON,L1W 4A1,905-428-9700,,905-428-9633,1.399,1.439,50,0,0,5,9,0,,,,,,,,,,,
37,Ontario,FLYING J TRAVEL CENTER #461,location_details.php?id=22148,https://www.truckstopsandservices.com/location_details.php?id=22148,Trucker,flying-j-,42.263491,-82.461239,HWY 401,56,19325 ESSEX CO RD 42,TILBURY,ON,N0P 2L0,519-682-1140 (TRAVEL CENTER),519-682-1140 (SUBWAY),519-682-9221,1.399,1.439,100,2,2,6,6,0,1.259,,,,,,,,,,
37,Ontario,FLYING J TRAVEL CENTER #789,location_details.php?id=20795,https://www.truckstopsandservices.com/location_details.php?id=20795,Trucker,flying-j-,42.93373,-81.174003,HWY 401,189,3700 HIGHBURY AVE S,LONDON,ON,N6N 1P3,519-686-9154 (TRAVEL CENTER),519-686-9154 (DENNY'S),519-686-8629,1.399,1.439,205,0,0,12,15,0,1.379,,,,,,,,,,
37,Ontario,FLYING J TRAVEL CENTER #790,location_details.php?id=20804,https://www.truckstopsandservices.com/location_details.php?id=20804,Trucker,flying-j-,44.266786,-76.968756,HWY 401,579,628 CO RD #41 RR6,NAPANEE,ON,K7R 3L1,613-354-7044 (TRAVEL CENTER),613-354-7044 (DENNY'S),613-354-3796,1.379,1.439,170,0,0,12,15,0,1.249,,,,,,,,,,
37,Ontario,FLYING J TRAVEL CENTER #805,location_details.php?id=22098,https://www.truckstopsandservices.com/location_details.php?id=22098,Trucker,flying-j-,43.74438,-79.6088,HWY 27,ALBION RD,1765 ALBION RD,ETOBICOKE,ON,M9W 5S7,416-674-8665 (TRAVEL CENTER),,,1.459,,10,0,0,2,0,0,1.379,,,,,,,,,,
37,Ontario,FLYING J TRAVEL CENTER #806,location_details.php?id=20791,https://www.truckstopsandservices.com/location_details.php?id=20791,Trucker,flying-j-,49.396936,-82.369442,HWY 11,SPRUCE FALLS RD,410 GOVERNMENT RD E,KAPUSKASING,ON,P5N 2X7,705-337-1333 (TRAVEL CENTER),,,1.639,1.439,40,0,0,5,4,0,1.429,,,,,,,,,,
37,Ontario,FLYING J TRAVEL CENTER #807,location_details.php?id=20801,https://www.truckstopsandservices.com/location_details.php?id=20801,Trucker,flying-j-,43.653347,-79.649544,HWY 401,344,1400 BRITANNIA RD,MISSISSAUGA,ON,L4W 1C8,905-564-6216,,905-564-0438,1.399,1.439,65,10,10,10,5,0,,,,,,,,,,,
37,Ontario,FLYING J TRAVEL CENTER #852,location_details.php?id=37600,https://www.truckstopsandservices.com/location_details.php?id=37600,Trucker,flying-j-,45.135949,-74.49842,HWY 401,814,20382 OLD HWY #2,LANCASTER,ON,K0C 1N0,613-347-2221 (TRAVEL CENTER),613-347-2221 (DENNY'S),613-347-1970,1.559,1.439,71,0,0,10,7,0,1.319,,,,,,,,,,
37,Ontario,FLYING J TRAVEL CENTER #853,location_details.php?id=48181,https://www.truckstopsandservices.com/location_details.php?id=48181,Trucker,flying-j-,46.556739,-84.319842,TCH 17 N,,996 GREAT NORTHERN RD,SAULT SAINTE MARIE,ON,P6A 5K7,705-945-9000 (TRAVEL CENTER),705-945-9000 (SUBWAY),,1.559,1.439,44,0,0,6,4,0,1.283,,,,,,,,,,
37,Ontario,FLYING J TRAVEL CENTER #862,location_details.php?id=37599,https://www.truckstopsandservices.com/location_details.php?id=37599,Trucker,flying-j-,43.334119,-80.432886,HWY 401,268,2492 CEDAR CREEK RD,AYR,ON,N0B 1E0,519-624-9578,,519-624-2587,1.399,1.439,22,3,3,6,4,0,1.299,,,,,,,,,,
37,Ontario,FLYING J TRAVEL CENTER #866,location_details.php?id=48171,https://www.truckstopsandservices.com/location_details.php?id=48171,Trucker,flying-j-,48.603094,-88.78124,TCH 11-17,HWY 587,3200 HWY 11/17,SHUNIAH,ON,P0T 2M0,807-977-2121 (TRAVEL CENTER),,,1.459,1.439,70,0,0,6,5,0,1.359,,,,,,,,,,
37,Ontario,FLYING M TRUCK STOP,location_details.php?id=20794,https://www.truckstopsandservices.com/location_details.php?id=20794,Trucker,ind_dealer_1,42.833856,-81.265451,HWY 401,177,7340 COLONEL TALBOT RD,LAMBETH,ON,N6L 1H8,519-652-2728,,,,,20,,,2,2,4,,,,,,,,,,,
37,Ontario,FORT ERIE TRAVEL PLAZA,location_details.php?id=22097,https://www.truckstopsandservices.com/location_details.php?id=22097,Trucker,flying-j-,42.921235,-78.967753,QEW,5,1637 PETIT RD,FORT ERIE,ON,L2A 5M4,905-991-1800,,905-991-1805,,,120,,,9,5,0,,,,,,,,,,,
37,Ontario,HEARST ESSO,location_details.php?id=48150,https://www.truckstopsandservices.com/location_details.php?id=48150,Trucker,esso,49.6907,-83.671418,TCH 11,,1112 FRONT ST,HEARST,ON,P0L 1N0,705-362-4111,,,,,30,,,3,2,0,,,,,,,,,,,
37,Ontario,HERB'S TRAVEL PLAZA,location_details.php?id=22151,https://www.truckstopsandservices.com/location_details.php?id=22151,Trucker,ind_dealer_1,45.466976,-74.677693,TCH 417,27,21160 SERVICE RD,VANKLEEK HILL,ON,K0B 1R0,613-525-2120,,,,,50,,,4,2,0,,,,,,,,,,,
37,Ontario,HUSKY CAR TRUCK STOP,location_details.php?id=20807,https://www.truckstopsandservices.com/location_details.php?id=20807,Trucker,husky,49.01927,-88.304311,TCH 11,,453 ONTARIO 17,NIPIGON,ON,P0T 2J0,807-887-5732,,,,,50,,,4,2,0,,,,,,,,,,,
37,Ontario,HUSKY CAR/TRUCK STOP,location_details.php?id=20798,https://www.truckstopsandservices.com/location_details.php?id=20798,Trucker,husky,43.654016,-79.642953,HWY 401,346,1553 SHAWSON DR,MISSISSAUGA,ON,L4W 1T7,905-565-9090,,905-565-9090,,,50,,,7,4,3,,,,,,,,,,,
37,Ontario,HUSKY CAR/TRUCK STOP,location_details.php?id=22099,https://www.truckstopsandservices.com/location_details.php?id=22099,Trucker,husky,49.786914,-92.832428,HWY 17,,379 GOVERNMENT ST,DRYDEN,ON,P8N 2P4,807-223-2085,,,,,50,,,2,2,0,,,,,,,,,,,
37,Ontario,HUSKY CAR/TRUCK STOP,location_details.php?id=22121,https://www.truckstopsandservices.com/location_details.php?id=22121,Trucker,husky,44.09861,-79.627228,HWY 400,64,3479 HWY 88,BRADFORD,ON,L3Z 2B2,905-775-3831,,,,,50,,,4,2,0,,,,,,,,,,,
37,Ontario,HUSKY CAR/TRUCK STOP,location_details.php?id=38334,https://www.truckstopsandservices.com/location_details.php?id=38334,Trucker,husky,43.647359,-79.682799,HWY 401,COURTNEY PARK,6625 KENNEDY RD,MISSISSAUGA,ON,L5T 2W5,905-565-9548,,905-565-6022,,,100,,,8,4,3,,,,,,,,,,,
37,Ontario,HUSKY EAST CAR/TRUCK STOP,location_details.php?id=22132,https://www.truckstopsandservices.com/location_details.php?id=22132,Trucker,husky,46.531198,-84.251161,TCH 17,,1275 TRUNK RD,SAULT SAINTE MARIE,ON,P6A 6X6,705-759-1220,,,,,50,,,3,2,0,,,,,,,,,,,
37,Ontario,HUSKY MARKET,location_details.php?id=48158,https://www.truckstopsandservices.com/location_details.php?id=48158,Trucker,husky,47.536772,-79.674677,HWY 11 N,,997491 ON-11,NEW LESKEARD,ON,P0J 1P0,705-647-5518,,,,,50,,,4,2,0,,,,,,,,,,,
37,Ontario,HUSKY PLUS,location_details.php?id=22093,https://www.truckstopsandservices.com/location_details.php?id=22093,Trucker,husky,49.690876,-83.685789,TCH 11,,1565 FRONT ST,HEARST,ON,P0L 1N0,705-362-4868,,,,,50,,,3,2,0,,,,,,,,,,,
37,Ontario,HUSKY TRAVEL CENTER,location_details.php?id=22154,https://www.truckstopsandservices.com/location_details.php?id=22154,Trucker,husky,42.24485,-82.95127,HWY 401,14,4040 ESSEX CO RD 46,WINDSOR,ON,NOR 1L0,519-737-6401 (TRAVEL CENTER),,,,,100,0,0,5,4,0,,,,,,,,,,,
37,Ontario,HUSKY TRAVEL CENTER,location_details.php?id=48185,https://www.truckstopsandservices.com/location_details.php?id=48185,Trucker,husky,48.409122,-89.257047,HARBOUR XPWY,,1120 ALLOY DR,THUNDER BAY,ON,P7B 5W3,807-623-3236,,,,,20,,,3,2,0,,,,,,,,,,,
37,Ontario,HUSKY TRUCKSTOP,location_details.php?id=57069,https://www.truckstopsandservices.com/location_details.php?id=57069,Trucker,husky,42.944603,-81.108016,HWY 401,195,3391 WESTCHESTER BOURNE,LONDON,ON,N0L 1B0,519-644-0200 (TRAVEL CENTER),519-644-0200 (HUSKY HOUSE),519-644-1232,,,50,,,11,10,,,,,,,,,,,,
37,Ontario,HUSKY/ESSO,location_details.php?id=22144,https://www.truckstopsandservices.com/location_details.php?id=22144,Trucker,husky,48.380393,-89.411348,TCH 11-17,,3131 W ARTHUR ST,ROSSYLN,ON,P7K 0P2,807-939-2619 (TRAVEL CENTER),807-939-2619 (GRANDMA'S RESTAURANT),,,,100,,,2,2,1,,,,,,,,,,,
37,Ontario,JEREMY TRUCK STOP,location_details.php?id=20803,https://www.truckstopsandservices.com/location_details.php?id=20803,Trucker,esso,46.32988,-81.587864,HWY 17,,220 HWY 17 W,NAIRN CENTRE,ON,P0M 2L0,705-869-4100 (TRAVEL CENTER),,,,,100,0,0,3,2,0,,,,,,,,,,,
37,Ontario,KEY STOP,location_details.php?id=48161,https://www.truckstopsandservices.com/location_details.php?id=48161,Trucker,esso,49.020966,-88.288753,TCH 11/17,,536 TRANS-CANADA,NIPIGON,ON,P0T 2J0,807-887-3706,,,,,50,,,4,2,0,,,,,,,,,,,
37,Ontario,KINGSTON HUSKY CAR/TRUCK STOP,location_details.php?id=20790,https://www.truckstopsandservices.com/location_details.php?id=20790,Trucker,husky,44.321635,-76.336505,HWY 401,632,2054 JOYCEVILLE RD,JOYCEVILLE,ON,K0H 1Y0,613-546-3468,,,,,50,,,4,2,0,,,,,,,,,,,
37,Ontario,LAKESHORE SERVICE CENTRE,location_details.php?id=22104,https://www.truckstopsandservices.com/location_details.php?id=22104,Trucker,esso,42.23889,-82.549769,HWY 401,48,7026 INDUSTRIAL DR,COMBER,ON,N0P 1J0,519-687-6200,,519-687-6201,,,50,,,6,4,0,,,,,,,,,,,
37,Ontario,LEPANNEN'S STORE & DELI,location_details.php?id=48184,https://www.truckstopsandservices.com/location_details.php?id=48184,Trucker,esso,48.491082,-89.372521,HWY 102,,3130 DAWSON RD,THUNDER BAY,ON,P7B 5E3,907-767-6808,,,,,10,,,2,0,0,,,,,,,,,,,
37,Ontario,LONDON HUSKY TRAVEL CENTER,location_details.php?id=22119,https://www.truckstopsandservices.com/location_details.php?id=22119,Trucker,,,,,,,,,,,,,,,,,,,,,,,,,,,,,,,
37,Ontario,MAC'S CONVENIENCE,location_details.php?id=22102,https://www.truckstopsandservices.com/location_details.php?id=22102,Trucker,irving,45.053611,-74.775833,HWY 401,789,3250 BROOKDALE AVE,CORNWALL,ON,K6K 1W3,613-933-2622,,,,,30,,,8,4,0,,,,,,,,,,,
37,Ontario,MANZO FUELS,location_details.php?id=22122,https://www.truckstopsandservices.com/location_details.php?id=22122,Trucker,ind_dealer_1,43.154664,-80.161479,HWY 2,HWY 53,1519 COLBORNE ST E,BRANTFORD,ON,N3T 5L4,519-752-1385,,,,,0,,,2,0,0,,,,,,,,,,,
37,Ontario,MORGAN FUELS,location_details.php?id=48146,https://www.truckstopsandservices.com/location_details.php?id=48146,Trucker,esso,49.786254,-92.79956,HWY 17,,15627 HWY 17 E,DRYDEN,ON,P8N 2Z2,807-223-2666,,,,,0,,,2,0,0,,,,,,,,,,,
37,Ontario,NIAGARA TRUCK STOP,location_details.php?id=48159,https://www.truckstopsandservices.com/location_details.php?id=48159,Trucker,esso,43.160412,-79.164841,QEW,38-B,497 YORK RD,NIAGARA,ON,L0S 1J0,905-684-1079,,,,,0,0,0,4,2,0,,,,,,,,,,,
37,Ontario,NORTH BAY TRUCK STOP,location_details.php?id=48168,https://www.truckstopsandservices.com/location_details.php?id=48168,Trucker,esso,46.257463,-79.385154,HWY 11,338,260 PINEWOOD PARK DR,NORTH BAY,ON,P0H 1H0,705-494-8100,,,,,50,,,6,4,0,,,,,,,,,,,
37,Ontario,OLD NORTH TRUCK CENTER,location_details.php?id=48167,https://www.truckstopsandservices.com/location_details.php?id=48167,Trucker,husky,46.357295,-79.467112,TCH 11,,3090 ON-11,NORTH BAY,ON,P1B 8G3,705-495-0790,,,,,20,,,3,0,1,,,,,,,,,,,
37,Ontario,ON THE RUN,location_details.php?id=48178,https://www.truckstopsandservices.com/location_details.php?id=48178,Trucker,esso,42.984491,-82.331199,LONDON LINE,,1670 LONDON LINE,SARNIA,ON,N7W 1B2,519-542-2665,,,,,20,,,5,4,0,,,,,,,,,,,
37,Ontario,ON THE RUN ULTRAMAR,location_details.php?id=20799,https://www.truckstopsandservices.com/location_details.php?id=20799,Trucker,esso,43.648266,-79.654411,HWY 401,346,5809 SHAWSON DR,MISSISSAUGA,ON,L4W 3Y2,905-795-1020 (TRAVEL CENTER),,,,,0,,,6,2,0,,,,,,,,,,,
37,Ontario,OXFORD TRUCK STOP,location_details.php?id=48189,https://www.truckstopsandservices.com/location_details.php?id=48189,Trucker,esso,43.142619,-80.672636,HWY 401,238-A,685737 OXFORD 2,WOODSTOCK,ON,N4S 7V9,519-467-5334,,,,,10,0,0,2,0,0,,,,,,,,,,,
37,Ontario,PEMBROKE ESSO,location_details.php?id=54769,https://www.truckstopsandservices.com/location_details.php?id=54769,Trucker,esso,45.833851,-77.150152,51,,1271 PEMBROKE ST W,PEMBROKE,ON,K8A 5R3,613-732-8354 (TRAVEL CENTER),,,,,20,0,0,1,0,0,,,,,,,,,,,
37,Ontario,PETRO CANADA,location_details.php?id=22094,https://www.truckstopsandservices.com/location_details.php?id=22094,Trucker,cardlockfuel,43.258055,-79.782395,PARKDALE AVE N,,740 PARKDALE AVE N,HAMILTON,ON,L8H 3Y2,905-543-0673,,,,,30,,,8,4,0,,,,,,,,,,,
37,Ontario,PETRO CANADA,location_details.php?id=54771,https://www.truckstopsandservices.com/location_details.php?id=54771,Trucker,petro,42.955352,-81.063149,401,199,3305 DORCHESTER RD,DORCHESTER,ON,N0L 1G0,519-268-2929 (TRAVEL CENTER),519-268-2929 (A & W),519-268-2929,,,0,0,0,7,6,0,,,,,,,,,,,
37,Ontario,PETRO CANADA,location_details.php?id=54772,https://www.truckstopsandservices.com/location_details.php?id=54772,Trucker,petro,48.533841,-89.650167,TCH 11-17,,720 HEWITSON ST,KAMINISTIQUIE,ON,P0T 1X0,807-623-3996 (TRAVEL CENTER),,,,,0,0,0,3,0,0,,,,,,,,,,,
37,Ontario,PETRO-CANADA,location_details.php?id=20810,https://www.truckstopsandservices.com/location_details.php?id=20810,Trucker,petro-pass,44.036409,-78.614919,HWY 115,HWY 35,8262 ON-115,ORONO,ON,L0B 1M0,905-983-9290 (TRAVEL CENTER),,,,,10,,,2,2,0,,,,,,,,,,,
37,Ontario,PETRO-CANADA,location_details.php?id=52865,https://www.truckstopsandservices.com/location_details.php?id=52865,Trucker,petro-pass,45.347134,-74.899968,TRANS-CANADA HWY,51,5715 STE CATHERINE ST,ST-ISIDORE,ON,K0C 2B0,613-524-2000 (TRAVEL CENTER),,,,,0,0,0,4,0,0,,,,,,,,,,,
37,Ontario,PETRO-CANADA/PETRO-PASS TRUCK STOP,location_details.php?id=48152,https://www.truckstopsandservices.com/location_details.php?id=48152,Trucker,petro-pass,44.280494,-76.570335,401,611,1586 CENTENNIAL DR,KINGSTON,ON,K7P 0C7,613-389-8010 (TRAVEL CENTER),,,,,50,,,6,4,0,,,,,,,,,,,
37,Ontario,PETRO-PASS,location_details.php?id=48155,https://www.truckstopsandservices.com/location_details.php?id=48155,Trucker,petro-pass,43.50383,-79.619107,SOUTHDOWN RD,,555 SOUTHDOWN RD,MISSISSAUGA,ON,L5J 4V1,905-823-0404,,,,,0,,,4,2,0,,,,,,,,,,,
37,Ontario,PETRO-PASS,location_details.php?id=48157,https://www.truckstopsandservices.com/location_details.php?id=48157,Trucker,petro-pass,43.681108,-79.683048,407,48,7300 DIXIE RD,MISSISSAUGA,ON,L5S 1E1,905-670-0328,,,,,50,,,6,4,0,,,,,,,,,,,
37,Ontario,PETRO-PASS,location_details.php?id=48149,https://www.truckstopsandservices.com/location_details.php?id=48149,Trucker,petro-pass,43.240958,-79.765163,KENORA AVE,,326 KENORA AVE,HAMILTON,ON,L8E 2W2,905-561-4712,,,,,30,,,4,2,2,,,,,,,,,,,
37,Ontario,PETRO-PASS,location_details.php?id=48142,https://www.truckstopsandservices.com/location_details.php?id=48142,Trucker,petro-pass,43.385011,-80.413352,HWY 401,275,120 CONESTOGA COLLEGE,CAMBRIDGE,ON,N2G 3W5,519-748-5550,,,,,20,,,4,2,0,,,,,,,,,,,
37,Ontario,PETRO-PASS,location_details.php?id=48143,https://www.truckstopsandservices.com/location_details.php?id=48143,Trucker,cardlockfuel,49.058316,-81.034269,TCH 11,,54 ON-11,COCHRANE,ON,P0L 1C0,705-272-2737,,,,,50,0,0,3,2,0,,,,,,,,,,,
37,Ontario,PETRO-PASS,location_details.php?id=48186,https://www.truckstopsandservices.com/location_details.php?id=48186,Trucker,petro-pass,43.805005,-79.52033,MACINTOSH BLVD,,120 MACINTOSH BLVD,VAUGHAN,ON,L4K 4P3,905-761-2850,,,,,10,,,4,2,0,,,,,,,,,,,
37,Ontario,PETRO-PASS,location_details.php?id=48187,https://www.truckstopsandservices.com/location_details.php?id=48187,Trucker,petro-pass,42.242992,-82.947223,HWY 11,,4406 CO 46,WINDSOR,ON,N0R 1K0,519-737-2634,,,,,0,,,4,4,0,,,,,,,,,,,
37,Ontario,PETRO-PASS,location_details.php?id=48188,https://www.truckstopsandservices.com/location_details.php?id=48188,Trucker,petro-pass,43.802722,-79.667985,HWY 50 & HWY 73,,9301 HWY 50,WOODBRIDGE,ON,L4H 2Y5,905-265-8876,,,,,50,,,4,4,0,,,,,,,,,,,
37,Ontario,PETRO-PASS,location_details.php?id=48147,https://www.truckstopsandservices.com/location_details.php?id=48147,Trucker,cardlockfuel,49.789132,-92.826766,TCH 17 & HWY 601,,140 COLONIZATION AVE N,DRYDEN,ON,P0V 2Z8,807-223-6732,,,,,50,,,4,2,0,,,,,,,,,,,
37,Ontario,PETRO-PASS,location_details.php?id=48151,https://www.truckstopsandservices.com/location_details.php?id=48151,Trucker,petro-pass,43.566666,-79.822596,401,328,7443 TRAFALGAR RD,HORNBY,ON,L0P 1E0,905-876-3271,,,,,30,,,2,0,0,,,,,,,,,,,
37,Ontario,PETRO-PASS,location_details.php?id=48169,https://www.truckstopsandservices.com/location_details.php?id=48169,Trucker,petro-pass,45.411841,-75.612047,TCH 417,112,1400 WINDMILL LANE,OTTAWA,ON,K1B 4V5,613-744-5711 (TRAVEL CENTER),,,,,0,0,0,3,2,0,,,,,,,,,,,
37,Ontario,PETRO-PASS,location_details.php?id=48175,https://www.truckstopsandservices.com/location_details.php?id=48175,Trucker,petro-pass,43.833719,-79.077403,HWY 401,399,1750 ALLIANCE RD,PICKERING,ON,L1W 3X2,905-420-7423,,,,,30,,,4,4,0,,,,,,,,,,,
37,Ontario,PETRO-PASS,location_details.php?id=48182,https://www.truckstopsandservices.com/location_details.php?id=48182,Trucker,petro-pass,46.436417,-80.974947,TCH 17 & HWY 46 NW,,3070 REGENT ST,SUDBURY,ON,P3E 5H7,705-522-8701,,,,,50,,,6,4,0,,,,,,,,,,,
37,Ontario,PETRO-PASS TRUCK STOP,location_details.php?id=48153,https://www.truckstopsandservices.com/location_details.php?id=48153,Trucker,petro-pass,42.925329,-81.207264,401,186,825 WILTON GROVE RD,LONDON,ON,N6N 1N7,519-649-4660,,,,,10,0,0,6,2,0,,,,,,,,,,,
37,Ontario,PETRO-PASS TRUCK STOP,location_details.php?id=48179,https://www.truckstopsandservices.com/location_details.php?id=48179,Trucker,petro-pass,42.982777,-82.326336,LONDON LINE,,1741 LONDON LINE,SARNIA,ON,N7T 7H2,519-542-0897,,,,,50,,,4,4,0,,,,,,,,,,,
37,Ontario,PETRO-PASS TRUCK STOP,location_details.php?id=48183,https://www.truckstopsandservices.com/location_details.php?id=48183,Trucker,petro-pass,45.087212,-74.590697,HWY 401,804,6350 CO RD 27,SUMMERSTOWN,ON,K0C 2E0,613-931-2569,,,,,50,,,6,4,0,,,,,,,,,,,
37,Ontario,SARNIA ESSO TRUCK STOP,location_details.php?id=48177,https://www.truckstopsandservices.com/location_details.php?id=48177,Trucker,esso,42.993455,-82.310683,HWY 402,9,81 UBE DR,SARNIA,ON,N7W 1B6,519-542-2014,,,,,30,,,6,4,0,,,,,,,,,,,
37,Ontario,SARNIA SERVICE CENTER,location_details.php?id=22158,https://www.truckstopsandservices.com/location_details.php?id=22158,Trucker,flying-j-,42.987294,-82.116584,HWY 402,25,5906 OIL HERITAGE RD,WYOMING,ON,N0N 1T0,519-845-3249,,519-845-0687,,,100,,,9,4,0,,,,,,,,,,,
37,Ontario,SHELL FLYING J DEALER #1201,location_details.php?id=48336,https://www.truckstopsandservices.com/location_details.php?id=48336,Trucker,flying-j-,43.7726241,-79.8765548,HURONTARIO ST,,13947 HURONTARIO ST,INGLEWOOD,ON,L7C 1H4,905-838-1355,,,1.639,1.359,0,0,0,2,0,0,,,,,,,,,,,
37,Ontario,SHELL TRAVEL CENTER,location_details.php?id=22117,https://www.truckstopsandservices.com/location_details.php?id=22117,Trucker,shell_,43.183597,-79.476243,QEW,64,4673 ONTARIO ST,BEAMSVILLE,ON,L0R 1B5,905-563-8816,,,,,10,,,3,2,0,,,,,,,,,,,
37,Ontario,ST CATHARINES HUSKY TRAVEL CENTRE,location_details.php?id=48160,https://www.truckstopsandservices.com/location_details.php?id=48160,Trucker,husky,43.156008,-79.154764,QEW,38-B,615 YORK RD,NIAGARA-ON-THE-LAKE,ON,L0S 1J0,905-684-1128 (TRAVEL CENTER),,,,,100,0,0,6,4,0,,,,,,,,,,,
37,Ontario,TA WOODSTOCK,location_details.php?id=22156,https://www.truckstopsandservices.com/location_details.php?id=22156,Trucker,catscale3,43.1031,-80.7565,HWY 401,230,535 MILL ST,WOODSTOCK,ON,N4S 0A9,519-421-3144 (TRAVEL CENTER),519-421-3144 (COUNTRY PRIDE RESTAURANT),519-421-5223,,,222,,,12,12,4,,,,,,,,,,,
37,Ontario,TEN ACRE TRUCK STOP,location_details.php?id=22118,https://www.truckstopsandservices.com/location_details.php?id=22118,Trucker,esso,44.179315,-77.444968,HWY 401,538,902A WALLBRIDGE LOYALIST RD,BELLEVILLE,ON,K8N 4Z5,613-966-7017,,613-966-4740,,,50,,,6,4,2,,,,,,,,,,,
37,Ontario,TRUCK TOWN TERMINAL ESSO,location_details.php?id=20797,https://www.truckstopsandservices.com/location_details.php?id=20797,Trucker,esso,43.547179,-79.863906,HWY 401,324,10862 STEELES AVE,MILTON,ON,L9T 2X8,905-878-8155,,,,,50,,,5,4,3,,,,,,,,,,,
37,Ontario,ULTRAMAR,location_details.php?id=55216,https://www.truckstopsandservices.com/location_details.php?id=55216,Trucker,ind_dealer_1,44.722187,-75.522431,401,716,110 PRESCOTT CENTRE DR,PRESCOTT,ON,K0E 1T0,613-925-4295 (TRAVEL CENTER),613-925-4295 (TIM HORTONS),,,,20,0,0,9,3,0,,,,,,,,,,,
37,Ontario,ULTRAMAR,location_details.php?id=55217,https://www.truckstopsandservices.com/location_details.php?id=55217,Trucker,ind_dealer_1,45.049686,-74.738972,KINGS HWY 401,792,1950 MCCONELL AVE,CORNWALL,ON,K6H 0C1,613-933-8577 (TRAVEL CENTER),,,,,25,0,0,4,1,0,,,,,,,,,,,
37,Ontario,ULTRAMAR PIPELINE,location_details.php?id=20815,https://www.truckstopsandservices.com/location_details.php?id=20815,Trucker,esso,43.972467,-78.287255,HWY 401,464,2211 NORTHUMBERLAND CO RD 28,PORT HOPE,ON,LOA 1B0,905-885-4600,,,,,0,,,4,0,0,,,,,,,,,,,
37,Ontario,ULTRAMAR/PIPELINE CORNER STORE,location_details.php?id=20811,https://www.truckstopsandservices.com/location_details.php?id=20811,Trucker,ind_dealer_1,45.383044,-75.601492,TCH 417,110,3199 HAWTHORNE RD,OTTAWA,ON,K1A 0A1,613-248-9319,,,,,10,,,4,2,0,,,,,,,,,,,
37,Ontario,VACHON'S AUTO/TRUCK STOP,location_details.php?id=22106,https://www.truckstopsandservices.com/location_details.php?id=22106,Trucker,cardlockfuel,49.052037,-81.031383,HWY 11,,99 HWY 11 S,COCHRANE,ON,P0L 1C0,705-272-5111 (TRAVEL CENTER),,705-272-3538,,,100,0,0,6,4,0,,,,,,,,,,,
37,Ontario,WAUBAUSHENE TRUCK STOP,location_details.php?id=22152,https://www.truckstopsandservices.com/location_details.php?id=22152,Trucker,esso,44.764963,-79.697117,HWY 400,149,21 QUARRY RD,WAUBAUSHENE,ON,L0K 2C0,705-538-2900,,,,,100,,,2,2,0,,,,,,,,,,,
38,Oregon,3 WAY CHEVRON,location_details.php?id=54078,https://www.truckstopsandservices.com/location_details.php?id=54078,Trucker,chevron,42.973212,-123.339342,I-5,103,292 PRUNER RD,RIDDLE,OR,97457,541-863-4776 (TRAVEL CENTER),,,,,10,0,0,2,0,0,,,,,,,24 HOURS,,,,
38,Oregon,ARROWHEAD TRAVEL PLAZA,location_details.php?id=279,https://www.truckstopsandservices.com/location_details.php?id=279,Trucker,ind_dealer_1,45.644103,-118.682304,I-84,216,72485 OREGON 331,MISSION,OR,97801,541-276-8080 (TRAVEL CENTER),541-276-8080 (MCDONALD'S),501-276-8765,,,100,0,0,8,8,0,,,,,,,24 HOURS,,,,
38,Oregon,BAKER CITY CHEVRON,location_details.php?id=297,https://www.truckstopsandservices.com/location_details.php?id=297,Trucker,chevron,44.784063,-117.807597,I-84,304,275 CAMPBELL ST,BAKER CITY,OR,97814,541-523-6341 (TRAVEL CENTER),541-523-6341 (CHAMP'S CHICKEN),541-523-0100,,,20,0,0,6,0,0,,,,,,,6AM TO 9PM DAILY,,,,
38,Oregon,BAKER TRUCK CORRAL,location_details.php?id=299,https://www.truckstopsandservices.com/location_details.php?id=299,Trucker,sinclair_oil_.svg,44.781532,-117.813934,I-84,304,515 CAMPBELL ST,BAKER CITY,OR,97814,541-523-3952 (TRAVEL CENTER),541-523-3952 (BAKERS CITY CAFE),541-523-2048,,,150,0,0,5,6,0,,,,,,,24 HOURS,,,,
38,Oregon,BASSETT HYLAND FUEL CENTER,location_details.php?id=11826,https://www.truckstopsandservices.com/location_details.php?id=11826,Trucker,chevron,43.356729,-124.212548,US 101,,1059 EVANS BLVD,COOS BAY,OR,97420,541-269-5682 (TRAVEL CENTER),,,,,2,,,3,0,0,,,,,,,24 HOURS,,,,
38,Oregon,BOARDMAN CHEVRON,location_details.php?id=44942,https://www.truckstopsandservices.com/location_details.php?id=44942,Trucker,chevron,45.839686,-119.701716,I-84,164,101 N MAIN ST,BOARDMAN,OR,97818,541-481-9235 (TRAVEL CENTER),,,,,20,0,0,2,0,0,,,,,,,"5AM TO 10PM MON THRU FRI, 6AM TO 10PM SAT-SUN",,,,
38,Oregon,BOARDMAN SHELL,location_details.php?id=53984,https://www.truckstopsandservices.com/location_details.php?id=53984,Trucker,shell_,45.83572,-119.7011,I-84,164,101 S FRONT ST,BOARDMAN,OR,97818,541-481-9391 (TRAVEL CENTER),,,,,,,,2,,,,,,,,,24 HOURS,,,,
38,Oregon,BUY RITE TEXACO,location_details.php?id=458,https://www.truckstopsandservices.com/location_details.php?id=458,Trucker,texaco-,45.328792,-118.079256,I-84,261,2112 ISLAND AVE,LAGRANDE,OR,97850,541-963-6566 (TRAVEL CENTER),,,,,0,0,0,4,0,0,,,,,,,6AM TO 9PM DAILY,,,,
38,Oregon,C & M COUNTRY STORE,location_details.php?id=11830,https://www.truckstopsandservices.com/location_details.php?id=11830,Trucker,chevron,45.341851,-118.045441,US 82,,10102 N MCALISTER RD,ISLAND CITY,OR,97850,541-963-3411 (TRAVEL CENTER),541-963-3411 (SUBWAY),,,,0,0,0,8,0,0,,,,,,,5AM TO 9:30PM DAILY,,,,
38,Oregon,CARSON CHEVRON FOOD MART,location_details.php?id=483,https://www.truckstopsandservices.com/location_details.php?id=483,Trucker,chevron,44.629548,-123.051233,I-5,233,4175 SANTIAM HWY SE,ALBANY,OR,97322,541-924-5726 (TRAVEL CENTER),541-924-5726 (CARSON DELI),,,,10,0,0,8,0,0,,,,,,,"4AM TO 10PM MON THRU FRI, 5AM TO 10PM SAT, 7AM TO 10PM SUN",,,,
38,Oregon,CIRCLE K,location_details.php?id=11822,https://www.truckstopsandservices.com/location_details.php?id=11822,Trucker,chevron,44.618738,-121.133315,US 97,,1210 US 97,MADRAS,OR,97741,541-475-7127,,,,,2,0,0,2,0,0,,,,,,,24 HOURS,,,,
38,Oregon,CIRCLE K,location_details.php?id=14652,https://www.truckstopsandservices.com/location_details.php?id=14652,Trucker,shell_,45.894512,-119.498069,US 730,,300 SE HWY 730,IRRIGON,OR,97844,541-922-4221 (TRAVEL CENTER),,541-922-5902,,,12,0,0,6,0,0,,,,,,,24 HOURS,,,,
38,Oregon,CRATER LAKE JUNCTION TRAVEL CENTER,location_details.php?id=44943,https://www.truckstopsandservices.com/location_details.php?id=44943,Trucker,ind_dealer_1,42.535318,-121.884524,US 97,OR 97,34005 US 97,CHILOQUIN,OR,97624,541-783-9800 (TRAVEL CENTER),541-783-9800 (COOPER'S CHICKEN),541-783-9801,,,100,0,0,5,6,0,,,,541-783-9800 (BLUE TACO),,,24 HOURS,,,,
38,Oregon,CROSSROADS TRUCK STOP,location_details.php?id=694,https://www.truckstopsandservices.com/location_details.php?id=694,Trucker,shell_,45.91811,-119.325045,I-82,1,2020 HWY 730,UMATILLA,OR,97838,541-922-3297 (TRAVEL CENTER),,,,,50,0,0,6,4,1,,,,,,,24 HOURS,,,,
38,Oregon,CULVER SHELL,location_details.php?id=44944,https://www.truckstopsandservices.com/location_details.php?id=44944,Trucker,shell_,44.522966,-121.210108,1ST ST,,603 1ST ST,CULVER,OR,97734,541-546-6603 (TRAVEL CENTER),,541-546-6133,,,20,0,0,2,0,0,,,,,,,7AM TO 6PM DAILY,,,,
38,Oregon,EDDIE'S TRUCK & AUTO CENTER,location_details.php?id=11814,https://www.truckstopsandservices.com/location_details.php?id=11814,Trucker,sinclair_oil_.svg,43.547963,-119.085364,US 20/395,,740 HWY 20 S,HINES,OR,97738,541-573-2639 (TRAVEL CENTER),541-573-2639 (FAST BREAK GRILL),,,,50,0,0,3,5,2,,,,,,,5AM TO 9PM DAILY,,,,
38,Oregon,EZ TRIP,location_details.php?id=52896,https://www.truckstopsandservices.com/location_details.php?id=52896,Trucker,pilot,45.670178,-120.831834,I-84,104,91558 BIGGS RUFUS HWY,BIGGS JUNCTION,OR,97065,541-739-2069 (TRAVEL CENTER),541-739-2069 (SUBWAY),541-739-2095,,,20,0,0,5,0,0,,,,,,,24 HOURS,,,,
38,Oregon,EZ TRIP TRAVEL CENTER (ONE9 FUEL NETWORK),location_details.php?id=13407,https://www.truckstopsandservices.com/location_details.php?id=13407,Trucker,76,44.555571,-123.055606,I-5,228,33380 HWY 34 SE,ALBANY,OR,97322,541-928-1723 (TRAVEL CENTER),,,,,30,0,0,5,3,0,,,,,,,24 HOURS,,,,
38,Oregon,FLYING J TRAVEL CENTER #584,location_details.php?id=1685,https://www.truckstopsandservices.com/location_details.php?id=1685,Trucker,flying-j-,45.233158,-122.810777,I-5,278,12334 EHLEN RD NE,AURORA,OR,97002,503-678-1262 (TRAVEL CENTER),503-678-1262 (SUBWAY),503-678-1667,3.999,4.259,90,20,20,7,7,0,3.499,,,,,,24 HOURS,4.359,,,
38,Oregon,FLYING J TRAVEL CENTER #934,location_details.php?id=17942,https://www.truckstopsandservices.com/location_details.php?id=17942,Trucker,flying-j-,45.29743,-118.042539,I-84,265,63276 OR-203,LAGRANDE,OR,97850,541-963-3432 (TRAVEL CENTER),541-963-3432 (SUBWAY),541-963-6188,3.999,4.259,100,5,5,7,3,0,3.659,,,541-963-3432 (MAMA DELUCAS PIZZA),,,24 HOURS,,,,
38,Oregon,FUEL N GO,location_details.php?id=1170,https://www.truckstopsandservices.com/location_details.php?id=1170,Trucker,ind_dealer_1,44.137043,-123.049621,I-5,199,33100 VAN DUYN RD,COBURG,OR,97408,541-686-2900 (TRAVEL CENTER),541-686-2900 (TACO COACH),541-342-4631,,,0,0,0,2,0,0,,,,,,,24 HOURS,,,,
38,Oregon,GEM STOP,location_details.php?id=1215,https://www.truckstopsandservices.com/location_details.php?id=1215,Trucker,chevron,45.332977,-118.068749,I-84,261,2708 ISLAND AVE,LAGRANDE,OR,97850,541-963-5221 (TRAVEL CENTER),,,,,5,0,0,3,2,0,,,,,,,24 HOURS,,,,
38,Oregon,GORDY'S TRUCK STOP,location_details.php?id=11823,https://www.truckstopsandservices.com/location_details.php?id=11823,Trucker,mobil_oil__type,43.704941,-121.475115,US 97,CO RD 43,17045 WHITNEY RD,LAPINE,OR,97739,541-536-6055 (TRAVEL CENTER),,541-536-6110,,,400,0,0,6,6,0,,,,,,,24 HOURS,,,,
38,Oregon,HALSEY MOBIL,location_details.php?id=54376,https://www.truckstopsandservices.com/location_details.php?id=54376,Trucker,mobil_oil__type,44.3883,-123.06547,I-5,216,32980 HWY 228,HALSEY,OR,97348,541-369-2624 (TRAVEL CENTER),541-369-2624 (THE BISTRO),541-369-2273,,,5,0,0,4,0,0,,,,,,,24 HOURS,,,,
38,Oregon,HINES CHEVRON,location_details.php?id=44945,https://www.truckstopsandservices.com/location_details.php?id=44945,Trucker,chevron,43.571871,-119.075631,US 20/395,,617 N HWY 20,HINES,OR,97738,541-573-7476 (TRAVEL CENTER),,,,,0,0,0,2,0,0,,,,,,,5AM TO 9PM DAILY,,,,
38,Oregon,J&L TRUCK STOP,location_details.php?id=11825,https://www.truckstopsandservices.com/location_details.php?id=11825,Trucker,shell_,44.621557,-121.131536,US 26,,992 US-97,MADRAS,OR,97741,541-475-7027,,541-475-3682,,,60,0,0,2,0,0,,,,,,,6AM TO 10PM DAILY,,,,
38,Oregon,JACK'S TRUCK STOP,location_details.php?id=1442,https://www.truckstopsandservices.com/location_details.php?id=1442,Trucker,76,44.62923,-123.051906,I-5,233,4196 SANTIAM HWY SE,ALBANY,OR,97322,541-791-7352 (TRAVEL CENTER),541-791-7352 (COOPER'S CHICKEN),541-248-3373,,,15,0,15,4,2,0,,,,,,,24 HOURS,,,,
38,Oregon,JACKSON'S FOOD MART,location_details.php?id=1444,https://www.truckstopsandservices.com/location_details.php?id=1444,Trucker,shell_,44.78171,-117.814415,I-84,304,500 CAMPBELL ST,BAKER CITY,OR,97814,541-523-7812 (TRAVEL CENTER),,,,,20,0,0,5,4,0,,,,,,,24 HOURS,,,,
38,Oregon,JIM'S SINCLAIR,location_details.php?id=54452,https://www.truckstopsandservices.com/location_details.php?id=54452,Trucker,sinclair_oil_.svg,42.9739,-117.05605,US 95,,801 MAIN ST,JORDAN VALLEY,OR,97910,541-586-2244 (TRAVEL CENTER),,541-586-2245,,,0,0,0,1,1,1,,,,,,,6AM TO 9PM DAILY,,,,
38,Oregon,JOHN DAY SINCLAIR,location_details.php?id=11816,https://www.truckstopsandservices.com/location_details.php?id=11816,Trucker,sinclair_oil_.svg,44.420588,-119.97601,US 26,,801 HWY 26,JOHN DAY,OR,97845,541-575-2585 (TRAVEL CENTER),541-575-2585 (COOPER'S CHICKEN),,,,5,0,0,1,0,0,,,,,,,"4:30AM TO 9PM MON THRU ST, 4:30AM TO 8PM SUN",,,,
38,Oregon,JUBITZ TRAVEL CENTER,location_details.php?id=1505,https://www.truckstopsandservices.com/location_details.php?id=1505,Trucker,ind_dealer_1,45.595942,-122.668491,I-5,307,33 NE MIDDLEFIELD RD,PORTLAND,OR,97217,503-283-1111 (TRAVEL CENTER),503-283-1111 (MOE'S DELI),503-240-5830,,,250,18,18,10,11,2,,,,503-283-1111 (JAKE BAKE DELI),,,24 HOURS,,,,
38,Oregon,LAKEVIEW SHELL,location_details.php?id=14728,https://www.truckstopsandservices.com/location_details.php?id=14728,Trucker,shell_,42.210331,-120.356305,US 395,,17697 US 395,LAKEVIEW,OR,97630,541-947-4899,,,,,10,0,0,5,0,0,,,,,,,4AM TO 10PM DAILY,,,,
38,Oregon,LEATHER'S SHELL,location_details.php?id=11813,https://www.truckstopsandservices.com/location_details.php?id=11813,Trucker,shell_,43.573798,-119.074551,US 20/395,,1202 OREGON AVE,HINES,OR,97720,541-573-7070 (TRAVEL CENTER),541-573-7070 (BLUE TACO),,,,15,0,0,5,1,0,,,,541-573-7070 (CHAMP'S CHICKEN),,,24 HOURS,,,,
38,Oregon,LOVE'S TRAVEL STOP #312,location_details.php?id=15191,https://www.truckstopsandservices.com/location_details.php?id=15191,Trucker,loves-travel-stops-country-stores_416x416,43.149287,-123.367396,I-5,119,280 GRANT SMITH RD,ROSEBURG,OR,97471,541-679-1916 (TRAVEL CENTER),541-679-1916 (ARBY'S),541-679-2083,,,76,0,0,8,5,2,,,,,,,24 HOURS,,,,
38,Oregon,LOVE'S TRAVEL STOP #372,location_details.php?id=15186,https://www.truckstopsandservices.com/location_details.php?id=15186,Trucker,loves-travel-stops-country-stores_416x416,44.044242,-116.977153,I-84,374,1041 NW WASHINGTON AVE,ONTARIO,OR,97914,541-823-8282 (TRAVEL CENTER),541-823-8282 (CHESTER'S FRIED CHICKEN),541-823-2514,,,50,0,0,7,8,2,,,,541-823-8282 (SUBWAY),,,24 HOURS,,,,
38,Oregon,LOVE'S TRAVEL STOP #449,location_details.php?id=15194,https://www.truckstopsandservices.com/location_details.php?id=15194,Trucker,loves-travel-stops-country-stores_416x416,45.544378,-122.392764,I-84,17,400 NW FRONTAGE RD,TROUTDALE,OR,97060,503-665-7741 (TRAVEL CENTER),503-665-7741 (CHESTER'S FRIED CHICKEN),503-666-4999,,,100,0,0,8,8,2,,,,503-665-7741 (LOVE'S PIZZA),,,24 HOURS,,,,
38,Oregon,LOVE'S TRAVEL STOP #569,location_details.php?id=62024,https://www.truckstopsandservices.com/location_details.php?id=62024,Trucker,loves-travel-stops-country-stores_416x416,44.75822,-117.8085,I-84,304,200 CAMPBELL ST.,BAKER CITY,OR,97814,541-239-6009 (TRAVEL CENTER),541-239-6009 (ARBY'S),541-239-3010,,,81,,,8,7,,,,,,,,,,,,
38,Oregon,LOVE'S TRAVEL STOP #650,location_details.php?id=44941,https://www.truckstopsandservices.com/location_details.php?id=44941,Trucker,loves-travel-stops-country-stores_416x416,45.824564,-119.797874,I-84,159,78665 TOWER RD,BOARDMAN,OR,97818,541-481-2934 (TRAVEL CENTER),541-481-2934 (CARL'S JR),541-481-3146,,,95,0,0,8,7,3,,,,,,,24 HOURS,,,,
38,Oregon,LOVE'S TRAVEL STOP #728,location_details.php?id=48344,https://www.truckstopsandservices.com/location_details.php?id=48344,Trucker,loves-travel-stops-country-stores_416x416,44.698361,-123.056517,I-5,238,6457 OLD SALEM RD NE,ALBANY,OR,97321,541-928-1900 (TRAVEL CENTER),541-928-1900 (ARBY'S),541-928-7035,,,75,0,0,8,7,2,,,,,,,24 HOURS,,,,
38,Oregon,LOVE'S TRAVEL STOP #795,location_details.php?id=53854,https://www.truckstopsandservices.com/location_details.php?id=53854,Trucker,loves-travel-stops-country-stores_416x416,44.612276,-121.137708,US 26/97,HALL RD,1678 SE US 97,MADRAS,OR,97741,541-675-6008 (TRAVEL CENTER),541-675-6008 (ARBY'S),541-675-6009,,,81,0,0,6,5,0,,,,,,,24 HOURS,,,,
38,Oregon,LOVE'S TRAVEL STOP #823,location_details.php?id=56914,https://www.truckstopsandservices.com/location_details.php?id=56914,Trucker,loves-travel-stops-country-stores_416x416,42.258139,-121.798994,US 97,,250 DAN O'BRIEN WAY,KLAMATH FALLS,OR,97601,541-363-4499 (TRAVEL CENTER),541-363-4499 (CARL'S JR),541-363-4500,,,94,0,0,7,5,0,,,,,,,24 HOURS,,,,
38,Oregon,MAIN STREET SINCLAIR,location_details.php?id=1948,https://www.truckstopsandservices.com/location_details.php?id=1948,Trucker,sinclair_oil_.svg,45.83926,-119.700883,I-84,164,100 MAIN ST,BOARDMAN,OR,97818,541-481-6750 (TRAVEL CENTER),,541-481-6702,,,0,0,0,2,0,0,,,,,,,24 HOURS,,,,
38,Oregon,MARKET EXPRESS,location_details.php?id=1979,https://www.truckstopsandservices.com/location_details.php?id=1979,Trucker,chevron,43.802333,-123.04528,I-5,174,1250 GATEWAY BLVD,COTTAGE GROVE,OR,97424,541-942-0105 (TRAVEL CENTER),541-942-0105 (COOPER'S CHICKEN),541-942-9668,,,50,0,0,5,2,0,,,,,,,24 HOURS,,,,
38,Oregon,MOBIL,location_details.php?id=3249,https://www.truckstopsandservices.com/location_details.php?id=3249,Trucker,mobil_oil__type,45.917543,-119.32643,I-82,1,1800 6TH ST,UMATILLA,OR,97882,541-922-0428 (TRAVEL CENTER),541-922-0428 (SUBWAY),,,,4,0,0,6,0,0,,,,,,,24 HOURS,,,,
38,Oregon,ONE STOP MART,location_details.php?id=3644,https://www.truckstopsandservices.com/location_details.php?id=3644,Trucker,ind_dealer_1,45.790896,-119.374498,I-84,180,28810 STAFFORD HANSEL RD,HERMISTON,OR,97838,541-567-5900 (TRAVEL CENTER),,541-567-5999,,,100,0,0,2,0,0,,,,,,,24 HOURS,,,,
38,Oregon,PETRO STOPPING CENTER #324,location_details.php?id=2252,https://www.truckstopsandservices.com/location_details.php?id=2252,Trucker,petro,42.280712,-122.811251,I-5,24,3730 FERN VALLEY RD,PHOENIX,OR,97535,541-535-3372 (TRAVEL CENTER),541-535-3372 (IRON SKILLET),541-512-3041,,,87,14,14,8,6,4,,,,,,,24 HOURS,,,,
38,Oregon,PILOT TRAVEL CENTER #133,location_details.php?id=11819,https://www.truckstopsandservices.com/location_details.php?id=11819,Trucker,pilot,43.215548,-121.782952,US 97,DAMON ST,341 DAMON ST,CHEMULT,OR,97731,541-365-0991 (TRAVEL CENTER),541-365-0991 (SUBWAY),541-365-0995,4.359,4.259,60,4,4,5,4,0,3.759,,,,,,24 HOURS,,,,
38,Oregon,PILOT TRAVEL CENTER #195,location_details.php?id=55888,https://www.truckstopsandservices.com/location_details.php?id=55888,Trucker,pilot,45.66908,-120.835729,I-84,104,91485 BIGGS RUFUS HWY,WASCO,OR,97065,541-739-2174 (TRAVEL CENTER),541-739-2174 (CINNABON),541-739-2479,4.199,4.259,37,7,7,7,5,0,3.699,,,541-739-2174 (MCDONALD'S),,,24 HOURS,,,,
38,Oregon,PILOT TRAVEL CENTER #232,location_details.php?id=17921,https://www.truckstopsandservices.com/location_details.php?id=17921,Trucker,pilot,44.025162,-116.953105,I-84,376-A,653 E IDAHO AVE,ONTARIO,OR,97914,541-889-9070 (TRAVEL CENTER),541-889-3796 (ARBY'S),541-889-4117,3.899,4.259,108,10,10,8,7,0,,,,,,,24 HOURS,,,,
38,Oregon,PILOT TRAVEL CENTER #233,location_details.php?id=17924,https://www.truckstopsandservices.com/location_details.php?id=17924,Trucker,pilot,43.538675,-123.288703,I-5,148,800 JOHN LONG RD,OAKLAND,OR,97462,541-849-2133 (TRAVEL CENTER),541-849-3379 (SUBWAY),541-849-2137,4.199,4.259,160,10,15,9,10,0,3.799,,,541-849-2133 (DENNY'S),,,24 HOURS,,,,
38,Oregon,PILOT TRAVEL CENTER #386,location_details.php?id=17929,https://www.truckstopsandservices.com/location_details.php?id=17929,Trucker,pilot,45.049563,-122.976898,I-5,263,4220 BROOKLAKE RD,BROOKS,OR,97305,503-463-1114 (TRAVEL CENTER),503-393-2625 (SUBWAY),503-463-0409,3.999,4.259,150,15,15,5,7,0,3.559,,,503-393-2625 (TACO BELL),,,24 HOURS,,,,
38,Oregon,PILOT TRAVEL CENTER #390,location_details.php?id=17934,https://www.truckstopsandservices.com/location_details.php?id=17934,Trucker,pilot,45.765582,-119.206977,I-82/84,188,2115 HWY 395,STANFIELD,OR,97875,541-449-1403 (TRAVEL CENTER),541-449-9833 (SUBWAY),541-449-1430,3.999,4.259,117,15,15,7,9,0,3.599,,,541-449-1403 (MCDONALD'S),,,24 HOURS,4.359,,,
38,Oregon,PILOT TRAVEL CENTER #391,location_details.php?id=17937,https://www.truckstopsandservices.com/location_details.php?id=17937,Trucker,pilot,42.377276,-122.899607,I-5,33,1600 E PINE ST,CENTRAL POINT,OR,97502,541-664-7001 (TRAVEL CENTER),541-664-1035 (SUBWAY),541-664-7006,4.259,4.259,100,20,20,8,7,0,3.699,,,541-664-1035 (TACO BELL),541-664-1035 (CINNABON),,24 HOURS,3.299,,,
38,Oregon,PILOT TRAVEL CENTER #504,location_details.php?id=37447,https://www.truckstopsandservices.com/location_details.php?id=37447,Trucker,pilot,42.255541,-121.798906,US 97,,3817 US 97 N,KLAMATH FALLS,OR,97601,541-884-0400 (TRAVEL CENTER),541-884-0408 (SUBWAY),541-884-0400,4.359,4.259,75,10,10,5,4,0,3.699,,,,,,24 HOURS,3.499,,,
38,Oregon,PIONEER VILLA TRUCK PLAZA,location_details.php?id=2607,https://www.truckstopsandservices.com/location_details.php?id=2607,Trucker,76,44.388794,-123.057368,I-5,216,33180 OR-228,HALSEY,OR,97348,541-369-2801 (TRAVEL CENTER),541-369-2801 (PIONEER VILLA RESTAURANT),541-369-2356,,,100,0,0,9,3,2,,,,,,,24 HOURS,,,,
38,Oregon,PLATEAU TRAVEL PLAZA,location_details.php?id=54804,https://www.truckstopsandservices.com/location_details.php?id=54804,Trucker,ind_dealer_1,44.664102,-121.138276,US 26,,215 NW CHERRY LN,MADRAS,OR,97741,541-777-2815 (TRAVEL CENTER),541-777-2815 (3 TEEPEE'S CAFE),541-475-0475,,,300,0,0,5,4,0,,,,,,,24 HOURS,,,,
38,Oregon,SEVEN FEATHERS TRUCK & TRAVEL CENTER,location_details.php?id=2884,https://www.truckstopsandservices.com/location_details.php?id=2884,Trucker,ind_dealer_1,42.941042,-123.289731,I-5,99,130 CREEKSIDE DR,CANYONVILLE,OR,97469,541-839-4868 (TRAVEL CENTER),,541-839-3101,,,200,0,0,5,11,0,,,,,,,24 HOURS,,,,
38,Oregon,SPACE AGE TRAVEL CENTER,location_details.php?id=2965,https://www.truckstopsandservices.com/location_details.php?id=2965,Trucker,ind_dealer_1,45.788558,-119.321779,I-84,182,77522 OR-207,HERMISTON,OR,97838,541-564-6254 (TRAVEL CENTER),541-564-6254 (A & W),541-564-8583,,,150,0,0,8,7,0,,,,,,,24 HOURS,,,,
38,Oregon,TRAVEL CENTERS OF AMERICA #0276,location_details.php?id=53856,https://www.truckstopsandservices.com/location_details.php?id=53856,Trucker,,44.2934,-117.2249,I-84,353,5945 US 30,HUNTINGTON,OR,97907,541-869-2301 (TRAVEL CENTER),541-869-2301 (CHAMP'S CHICKEN),541-869-2300,,,150,0,0,8,6,,,,,541-869-2301 (NAUGHTY CHILE TAQUERIA),,,24 HOURS,,,,
38,Oregon,TRAVEL CENTERS OF AMERICA #056,location_details.php?id=16426,https://www.truckstopsandservices.com/location_details.php?id=16426,Trucker,catscale3,45.236257,-122.808215,I-5,278,21856 BENTS RD NE,AURORA,OR,97002,503-678-2111 (TRAVEL CENTER),503-678-2111 (COUNTRY PRIDE RESTAURANT),503-678-2571,,,275,16,16,8,9,2,,,,503-678-2111 (POPEYE'S),,,24 HOURS,,,,
38,Oregon,TRAVEL CENTERS OF AMERICA #078,location_details.php?id=16431,https://www.truckstopsandservices.com/location_details.php?id=16431,Trucker,,44.137002,-123.057585,I-5,199,32910 E PEARL ST,COBURG,OR,97408,541-868-2880 (TRAVEL CENTER),541-868-2880 (COBURG CROSSING CAFE),541-683-2301,,,170,13,13,8,6,3,,,,,,,24 HOURS,,,,
38,Oregon,TRAVEL CENTERS OF AMERICA #183,location_details.php?id=16434,https://www.truckstopsandservices.com/location_details.php?id=16434,Trucker,catscale3,45.544426,-122.394824,I-84,17,790 NW FRONTAGE RD,TROUTDALE,OR,97060,503-666-1588 (TRAVEL CENTER),503-666-1588 (COUNTRY PRIDE RESTAURANT),503-665-3746,,,240,51,51,10,12,3,,,,503-666-1588 (POPEYE'S),503-666-1588 (SUBWAY),,24 HOURS,,,,
38,Oregon,TRAVEL CENTERS OF AMERICA EXPRESS #279,location_details.php?id=52441,https://www.truckstopsandservices.com/location_details.php?id=52441,Trucker,taexpress,45.66846,-120.836638,I-84,104,91464 BIGGS-RUFUS HWY,WASCO,OR,97065,541-739-2008 (TRAVEL CENTER),541-739-2008 (PIZZA HUT),541-739-2010,,,40,21,21,5,5,0,,,,541-739-2008 (KRISPY KRUNCHY CHICKEN),,,24 HOURS,,,,
38,Oregon,WORDEN TRUCK STOP,location_details.php?id=11821,https://www.truckstopsandservices.com/location_details.php?id=11821,Trucker,ind_dealer_1,42.046277,-121.866209,US 97,,19777 US 97,KLAMATH FALLS,OR,97603,541-273-6216 (TRAVEL CENTER),541-273-6216 (CINDER'S CAFE),541-273-6222,,,50,0,0,2,0,0,,,,,,,7AM TO 10PM DAILY,,,,
39,Pennsylvania,309 TRUCK STOP,location_details.php?id=11546,https://www.truckstopsandservices.com/location_details.php?id=11546,Trucker,ind_dealer_1,40.492473,-75.380753,US 309,,1720 PA 309,COOPERSBURG,PA,18036,610-282-4011 (TRAVEL CENTER),,610-282-4011,,,25,0,25,6,0,0,,,,,,,,,,,
39,Pennsylvania,7 ELEVEN,location_details.php?id=53546,https://www.truckstopsandservices.com/location_details.php?id=53546,Trucker,sunoco,40.060533,-77.477509,I-81,29,200 WALNUT BOTTOM RD,SHIPPENSBURG,PA,17257,717-532-7788 (TRAVEL CENTER),,,,,0,0,0,2,0,0,,,,,,,,,,,
39,Pennsylvania,7 ELEVEN,location_details.php?id=54254,https://www.truckstopsandservices.com/location_details.php?id=54254,Trucker,bp-,40.77232,-80.073509,PA 68,,542 W MAIN ST,EVANS CITY,PA,16033,724-538-8517 (TRAVEL CENTER),,,,,0,0,0,4,0,0,,,,,,,,,,,
39,Pennsylvania,7 ELEVEN  #35899,location_details.php?id=53901,https://www.truckstopsandservices.com/location_details.php?id=53901,Trucker,7-eleven,40.32325,-79.699722,I-76,67,7910 US ROUTE 30 E,IRWIN,PA,15642,724-864-9872 (TRAVEL CENTER),,,,,5,0,0,3,0,0,,,,,,,,,,,
39,Pennsylvania,7 ELEVEN #7095 - OAKMONT PLAZA,location_details.php?id=2146,https://www.truckstopsandservices.com/location_details.php?id=2146,Trucker,sunoco,40.521695,-79.815085,I-76,,2000 EASTERN AVE,VERONA,PA,15147,412-828-3702 (TRAVEL CENTER),412-828-3702 (BURGER KING),,,,25,0,0,3,0,0,,MM 49 EB,,,,,,,,,
39,Pennsylvania,7 ELEVEN 40287 - WAYNE,location_details.php?id=53548,https://www.truckstopsandservices.com/location_details.php?id=53548,Trucker,sunoco,40.083155,-75.439226,I-76,,1495 VALLEYFORD RD,WAYNE,PA,19087,610-687-9964 (TRAVEL CENTER),610-687-9964 (STARBUCKS),,,,4,0,0,2,0,,,MM 380,,,,,,,,,
39,Pennsylvania,7 ELEVEN 7081 BLUE MOUNTAIN PLAZA,location_details.php?id=382,https://www.truckstopsandservices.com/location_details.php?id=382,Trucker,sunoco,40.166205,-77.594566,I-76,,MM 202.5 PA TPKE,NEWBURG,PA,17240,717-423-5482 (TRAVEL CENTER),717-423-5482 (ROY ROGERS),,,,50,0,0,2,0,0,,MM 202.5 WB,,717-423-5482 (AUNTIE ANNE'S),717-423-5482 (SBARRO),,,,717-423-5482 (STARBUCKS),,
39,Pennsylvania,7 ELEVEN 7082 - CUMBERLAND VALLEY PLAZA,location_details.php?id=2622,https://www.truckstopsandservices.com/location_details.php?id=2622,Trucker,sunoco,40.205166,-77.286887,I-76,,13 BURGNERS MILL RD,CARLISLE,PA,17015,717-258-4397 (TRAVEL CENTER),717-258-4397 (ROY ROGERS),,,,50,0,0,2,0,0,,MM 219 EB,,717-258-4397 (AUNTIE ANNE'S),,,,,,,
39,Pennsylvania,7 ELEVEN 7087 - ALLENTOWN PLAZA,location_details.php?id=53551,https://www.truckstopsandservices.com/location_details.php?id=53551,Trucker,sunoco,40.574249,-75.5584,I-476,,5052 CETRONIA RD,WESCOSVILLE,PA,18106,610-398-7086 (TRAVEL CENTER),610-398-7086 (ROY ROGERS),610-395-2169,,,100,0,0,4,0,0,,MM 55,,610-398-7086 (CINNABON),610-398-7086 (AUNTIE ANNE'S),,,,610-398-7086 (STARBUCKS),,
39,Pennsylvania,7 ELEVEN 7088 - HICKORY RUN PLAZA,location_details.php?id=1315,https://www.truckstopsandservices.com/location_details.php?id=1315,Trucker,7-eleven,40.970519,-75.632383,I-476,,256 DANNER RD #3,JIM THORPE,PA,18229,570-325-2673 (TRAVEL CENTER),570-325-2673 (BURGER KING),570-565-7015,,,100,0,0,4,0,0,,MM 86 NB/SB,,570-325-2673 (AUNTIE ANNE'S),570-325-2673 (STARBUCKS),,,,,,
39,Pennsylvania,7 ELEVEN 7090 - HIGHSPIRE SERVICE PLAZA,location_details.php?id=1322,https://www.truckstopsandservices.com/location_details.php?id=1322,Trucker,sunoco,40.210162,-76.744456,I-76E,,441 INDUSTRIAL LANE,MIDDLETOWN,PA,17057,717-944-9266 (TRAVEL CENTER),717-944-9266 (ROY ROGERS),717-944-1122,,,11,0,0,1,0,0,,MM 250 EB,,717-944-9266 (STARBUCKS),,,,,,,
39,Pennsylvania,7 ELEVEN 7091 - LAWN PLAZA,location_details.php?id=53550,https://www.truckstopsandservices.com/location_details.php?id=53550,Trucker,sunoco,40.207945,-76.573172,PA TPKE,BACHMANVILLE RD,7 BACHMANVILLE RD,HERSHEY,PA,17033,717-367-9336 (TRAVEL CENTER),717-367-9336 (STARBUCKS),717-367-0429,,,75,0,0,2,0,0,,,,717-367-9336 (BURGER KING),,,,,,,
39,Pennsylvania,7 ELEVEN 7092 BOWMANSVILLE PLAZA,location_details.php?id=53549,https://www.truckstopsandservices.com/location_details.php?id=53549,Trucker,sunoco,40.201929,-76.015202,I-76,,625 PA TPKE,BOWMANSVILLE,PA,17507,717-445-9791 (TRAVEL CENTER),717-445-9791 (BURGER KING),,,,12,0,0,1,0,0,,MM 290,,,,,,,,,
39,Pennsylvania,7 ELEVEN 7093 PETER J CAMIEL PLAZA,location_details.php?id=2204,https://www.truckstopsandservices.com/location_details.php?id=2204,Trucker,sunoco,40.121171,-75.775465,I-76W,,5 MARSH RD,ELVERSON,PA,19520,610-286-8836 (TRAVEL CENTER),610-286-8836 (ROY ROGERS),,,,50,0,0,2,0,0,,MM 305 WB,,610-286-8836 (PZA),610-286-8836 (STARBUCKS),,,,,,
39,Pennsylvania,7- ELEVEN #7076 - SOUTH SOMERSET PLAZA,location_details.php?id=2957,https://www.truckstopsandservices.com/location_details.php?id=2957,Trucker,sunoco,40.000214,-79.047706,I-70/76,,328 INDUSTRIAL PARK RD,SOMERSET,PA,15501,814-445-4925 (TRAVEL CENTER),814-445-4925 (BURGER KING),814-445-1391,,,150,0,0,2,0,0,,MM 112 EB,,814-445-4925 (STARBUCKS),814-445-4925 (POPEYE'S),,,,,,
39,Pennsylvania,7- ELEVEN #7077 - NORTH SOMERSET PLAZA,location_details.php?id=47948,https://www.truckstopsandservices.com/location_details.php?id=47948,Trucker,sunoco,39.999899,-79.043093,I-70/76,,PA TPKE MM 112,SOMERSET,PA,15501,814-444-1746 (TRAVEL CENTER),814-444-1746 (ROY ROGERS),,,,75,0,0,3,0,0,,MM 112 WB,,814-444-1746 (AUNTIE ANNE'S),814-444-1746 (STARBUCKS),,,,814-444-1746 (SAMIGLIA PIZZERIA),,
39,Pennsylvania,7- ELEVEN #7078 - SOUTH MIDWAY PLAZA,location_details.php?id=2955,https://www.truckstopsandservices.com/location_details.php?id=2955,Trucker,sunoco,40.031198,-78.494549,I-76E,150,410 SHADYSIDE DR,BEDFORD,PA,15522,814-802-7070 (TRAVEL CENTER),814-802-7070 (STARBUCKS),,,,30,0,0,4,0,0,,,,814-802-7070 (ROY ROGERS),814-802-7070 (SBARRO),,,,,,
39,Pennsylvania,84 BP TRUCK STOP,location_details.php?id=200,https://www.truckstopsandservices.com/location_details.php?id=200,Trucker,bp-,40.154902,-80.130598,I-70,25,444 PA 519,EIGHTY FOUR,PA,15330,724-228-3408 (TRAVEL CENTER),724-228-3408 (DUKE'S DINER),,,,30,,,4,2,0,,,,,,,,,,,
39,Pennsylvania,ADELE'S,location_details.php?id=53908,https://www.truckstopsandservices.com/location_details.php?id=53908,Trucker,shell_,42.10763,-80.114388,I-79,183-A,1502 GREENGARDEN BLVD,ERIE,PA,16501,814-454-2140 (TRAVEL CENTER),,,,,3,0,0,2,0,0,,,,,,,,,,,
39,Pennsylvania,AMERICAN NATURAL #11,location_details.php?id=53929,https://www.truckstopsandservices.com/location_details.php?id=53929,Trucker,exxon,40.80236,-80.120293,I-79,87,2576 EVANS CITY RD,HARMONY,PA,16037,724-453-0660 (TRAVEL CENTER),,,,,0,0,0,2,0,0,,,,,,,,,,,
39,Pennsylvania,AMERICAN TRUCK STOP,location_details.php?id=11570,https://www.truckstopsandservices.com/location_details.php?id=11570,Trucker,american_truck_center_llc2020,41.763246,-77.079229,US 15,CANOE CAMP RD,2740 S MAIN ST,MANSFIELD,PA,16933,570-659-5301 (TRAVEL CENTER),,570-659-5082,,,50,0,0,4,4,6,,,,,,,,,,,
39,Pennsylvania,ANCHORS AWAY,location_details.php?id=53934,https://www.truckstopsandservices.com/location_details.php?id=53934,Trucker,ind_dealer_1,41.198414,-79.97393,I-80,29,5613 STATE ROUTE 8,HARRISVILLE,PA,16038,814-786-7055 (TRAVEL CENTER),814-786-7055 (SUBWAY),,,,0,0,0,4,0,0,,,,,,,,,,,
39,Pennsylvania,B&S SUNOCO,location_details.php?id=53945,https://www.truckstopsandservices.com/location_details.php?id=53945,Trucker,sunoco,39.83404,-75.384048,PA 291,,2200 W 2ND ST,CHESTER,PA,19013,610-485-2327 (TRAVEL CENTER),,,,,,,,2,,,,,,,,,,,,,
39,Pennsylvania,BALD EAGLE TRUCK STOP,location_details.php?id=47937,https://www.truckstopsandservices.com/location_details.php?id=47937,Trucker,exxon,41.153501,-77.356282,US 220,PA 1005,612 MCELHATTAN DR,MCELHATTAN,PA,17748,570-769-6455 (TRAVEL CENTER),,,,,22,0,0,3,5,0,,,,,,,,,,,
39,Pennsylvania,BANDIT TRUCK STOP,location_details.php?id=301,https://www.truckstopsandservices.com/location_details.php?id=301,Trucker,sunoco,40.580964,-75.707563,I-78,45,2277 GOLDEN KEY RD,NEW SMITHVILLE,PA,19530,610-285-2852 (TRAVEL CENTER),,610-285-2579,,,100,0,0,7,0,0,,,,,,,,,,,
39,Pennsylvania,BANDIT TRUCK STOP,location_details.php?id=302,https://www.truckstopsandservices.com/location_details.php?id=302,Trucker,sunoco,41.062094,-75.748265,I-80,274,4700 STATE ROUTE 534,HICKORY RUN,PA,18661,570-443-7294 (TRAVEL CENTER),,,,,35,,,4,0,0,,,,,,,,,,,
39,Pennsylvania,BFS TRUCK/AUTO PLAZA,location_details.php?id=338,https://www.truckstopsandservices.com/location_details.php?id=338,Trucker,sunoco,39.734248,-80.05678,I-79,1,106 GAS COMPANY RD,MT. MORRIS,PA,15349,724-324-5385 (TRAVEL CENTER),724-324-5385 (HUDDLE HOUSE),724-324-2267,,,27,0,0,4,2,0,,,,,,,,,,,
39,Pennsylvania,BILO GAS N GO,location_details.php?id=53972,https://www.truckstopsandservices.com/location_details.php?id=53972,Trucker,ind_dealer_1,40.81107,-80.127658,US 19,,226 ROUTE 19 N,HARMONY,PA,16037,724-452-5990 (TRAVEL CENTER),,724-452-5997,,,0,0,0,4,0,0,,,,,,,,,,,
